nombre,categoria,tipo,ciudad,municipio,estado,codigopostal,lat,lon,min_lat,max_lat,min_lon,max_lon,id_estado,id_municipio,tiene_aeropuerto,id
Cabo San Lucas,place,city,Cabo San Lucas,Los Cabos,Baja California Sur,23470,22.8938884,-109.92006,22.7338884,23.0538884,-110.08006,-109.76006,3.0,3008.0,1,1
Cancún,boundary,administrative,Cancún,Benito Juárez,Quintana Roo,unkwown,21.1527467,-86.8425761,20.9705855,21.2123751,-86.9956171,-86.7405259,23.0,23005.0,1,2
Loreto,place,town,unkwown,Loreto,Baja California Sur,23880,26.0097913,-111.3452523,25.9697913,26.0497913,-111.3852523,-111.3052523,3.0,3009.0,1,3
San José del Cabo,place,city,San José del Cabo,Los Cabos,Baja California Sur,23400,23.0598364,-109.7025148,22.8998364,23.2198364,-109.8625148,-109.5425148,3.0,3008.0,1,4
Ixtapa,boundary,administrative,unkwown,Ixtapa,Chiapas,unkwown,16.8076227,-92.898650478142,16.6846331,16.9307064,-93.0206204,-92.8110725,7.0,7044.0,1,5
Zihuatanejo,place,town,unkwown,Zihuatanejo de Azueta,Guerrero,40880,17.6467874,-101.551974,17.6067874,17.6867874,-101.591974,-101.511974,12.0,12038.0,1,6
Akumal,place,village,unkwown,unkwown,Quintana Roo,77737,20.398797,-87.3173404,20.378797,20.418797,-87.3373404,-87.2973404,23.0,0.0,0,7
Isla Mujeres,boundary,administrative,unkwown,Isla Mujeres,Quintana Roo,77402,21.2371906,-86.7350001,21.201541,21.265481,-86.7527683,-86.7106502,23.0,23003.0,0,8
Playa del Carmen,boundary,administrative,Playa del Carmen,unkwown,Quintana Roo,unkwown,20.6308643,-87.0779503,20.5999428,20.7098999,-87.1251816,-87.0214215,23.0,0.0,1,9
Plaza Playacar,landuse,commercial,Playa del Carmen,unkwown,Quintana Roo,unkwown,20.6091203,-87.0909574510447,20.6088216,20.6097428,-87.091389,-87.0900074,23.0,0.0,1,10
Rosarito,place,city,Rosarito,Playas de Rosarito,Baja California,22703,32.365166,-117.0557923,32.205166,32.525166,-117.2157923,-116.8957923,2.0,2005.0,0,11
Puerto Escondido,place,city,Puerto Escondido,San Pedro Mixtepec,Oaxaca,71800,15.8693331,-97.0726428,15.7093331,16.0293331,-97.2326428,-96.9126428,20.0,0.0,1,12
San Felipe,place,town,unkwown,San Felipe,Guanajuato,37600,21.4788273,-101.215752,21.4388273,21.5188273,-101.255752,-101.175752,11.0,11030.0,1,13
Nuevo Nayarit,place,village,unkwown,Bahía de Banderas,Nayarit,63735,20.7027575,-105.2885106,20.6827575,20.7227575,-105.3085106,-105.2685106,18.0,18020.0,0,14
Acapulco,place,city,Acapulco,Acapulco de Juárez,Guerrero,39300,16.8680495,-99.8940182,16.7080495,17.0280495,-100.0540182,-99.7340182,12.0,12001.0,1,15
Isla Cozumel,place,island,unkwown,Cozumel,Quintana Roo,unkwown,20.4320599,-86.9206905837727,20.2720013,20.5919986,-87.0251995,-86.7232847,23.0,23001.0,1,16
La Paz,place,city,La Paz,La Paz,Baja California Sur,23020,24.1619948,-110.3158532,24.0019948,24.3219948,-110.4758532,-110.1558532,3.0,3003.0,1,17
Manzanillo,place,city,Manzanillo,Manzanillo,Colima,28200,19.0506256,-104.3159957,18.8906256,19.2106256,-104.4759957,-104.1559957,6.0,6007.0,1,18
Mazatlán,place,city,Mazatlán,Mazatlán,Sinaloa,82000,23.2035785,-106.4208391,23.0435785,23.3635785,-106.5808391,-106.2608391,25.0,25012.0,1,19
Puerto Vallarta,place,city,Puerto Vallarta,Puerto Vallarta,Jalisco,48300,20.6407176,-105.220306,20.4807176,20.8007176,-105.380306,-105.060306,14.0,14067.0,1,20
Veracruz,highway,residential,unkwown,Boca del Río,Veracruz,94293,19.1256447,-96.1125485,19.125205,19.1260844,-96.1125975,-96.1124995,30.0,30028.0,1,21
Aguascalientes,place,city,Aguascalientes,Aguascalientes,Aguascalientes,20000,21.880487,-102.2967195,21.720487,22.040487,-102.4567195,-102.1367195,1.0,1001.0,1,22
Campeche,boundary,administrative,unkwown,unkwown,Campeche,unkwown,19.0,-90.5,17.8124246,20.8483273,-92.4690272,-89.1212292,4.0,0.0,1,23
Celaya,boundary,administrative,unkwown,Celaya,Guanajuato,unkwown,20.5222851,-100.830773928921,20.3560513,20.6886364,-100.9115204,-100.6348829,11.0,11007.0,1,24
Chihuahua,boundary,administrative,unkwown,unkwown,Chihuahua,unkwown,28.5000001,-106.0000001,25.558657,31.7839157,-109.0749842,-103.30669,8.0,0.0,1,25
Coatzacoalcos,place,city,Coatzacoalcos,Coatzacoalcos,Veracruz,96576,18.1405019,-94.4344003,17.9805019,18.3005019,-94.5944003,-94.2744003,30.0,30039.0,0,26
Colima,boundary,administrative,unkwown,unkwown,Colima,unkwown,19.166667,-104.0,18.3389881,19.5125187,-114.7600696,-103.4863465,6.0,0.0,1,27
Comitán,place,city,Comitán,Comitán de Domínguez,Chiapas,30020,16.2441097,-92.1348514,16.0841097,16.4041097,-92.2948514,-91.9748514,7.0,7019.0,0,28
Culiacán,place,city,Culiacán,Culiacán,Sinaloa,80220,24.7978965,-107.393395,24.6378965,24.9578965,-107.553395,-107.233395,25.0,25006.0,1,29
Durango,boundary,administrative,unkwown,unkwown,Durango,unkwown,24.833333,-104.833333,22.3450837,26.8447877,-107.2101322,-102.4726969,10.0,0.0,1,30
El Fuerte,boundary,administrative,unkwown,El Fuerte,Sinaloa,unkwown,26.236459,-108.660378329455,25.8166486,26.6580028,-109.0425737,-108.2605145,25.0,25010.0,1,31
Guanajuato,boundary,administrative,unkwown,unkwown,Guanajuato,unkwown,20.9876996,-101.0,19.9127502,21.8394167,-102.0972846,-99.6713026,11.0,0.0,0,32
Hermosillo,place,city,Hermosillo,Hermosillo,Sonora,83140,29.0948207,-110.9692202,28.9348207,29.2548207,-111.1292202,-110.8092202,26.0,26030.0,1,33
Irapuato,place,city,Irapuato,Irapuato,Guanajuato,36500,20.6758761,-101.3521052,20.5158761,20.8358761,-101.5121052,-101.1921052,11.0,11017.0,0,34
León,place,city,León,León,Guanajuato,37370,21.121965,-101.6829766,20.961965,21.281965,-101.8429766,-101.5229766,11.0,11020.0,1,35
Los Mochis,boundary,administrative,Los Mochis,Ahome,Sinaloa,unkwown,25.7928058,-108.990188,25.7289293,25.8395287,-109.0463376,-108.9382048,25.0,25001.0,1,36
Mérida,boundary,administrative,Mérida,Mérida,Yucatán,unkwown,20.9670759,-89.6237402,20.8879521,21.0920453,-89.7396666,-89.5080983,31.0,31050.0,1,37
Morelia,boundary,administrative,unkwown,Morelia,Michoacán,unkwown,19.6546004,-101.262379722912,19.4471606,19.8622702,-101.5089304,-101.0425838,16.0,16053.0,1,38
Oaxaca,boundary,administrative,unkwown,unkwown,Oaxaca,unkwown,17.0,-96.5,15.6568776,18.6696881,-98.5526959,-93.8674267,20.0,0.0,1,39
Pachuca,place,city,Pachuca,Pachuca de Soto,Hidalgo,42060,20.1165413,-98.7413535,19.9565413,20.2765413,-98.9013535,-98.5813535,13.0,13048.0,1,40
Palenque,boundary,administrative,unkwown,Palenque,Chiapas,29960,17.45316095,-91.812124118482,17.0670103,17.8394725,-92.3501948,-91.2604097,7.0,7065.0,1,41
Puebla,boundary,administrative,unkwown,unkwown,Puebla,unkwown,18.833333,-98.0,17.860912,20.8396271,-99.070494,-96.7246199,21.0,0.0,1,42
Querétaro,boundary,administrative,unkwown,unkwown,Querétaro,unkwown,20.8052225,-99.8837376,20.0150182,21.6700054,-100.5965357,-99.0430799,22.0,0.0,1,43
Salamanca,boundary,administrative,unkwown,Salamanca,Guanajuato,unkwown,20.6511359,-101.166766978266,20.4368646,20.8668882,-101.3134206,-101.0330697,11.0,11027.0,0,44
San Cristóbal,place,city,San Cristóbal,San Cristóbal de las Casas,Chiapas,29200,16.735377,-92.63873,16.575377,16.895377,-92.79873,-92.47873,7.0,7078.0,0,45
San Juan de los Lagos,boundary,administrative,unkwown,San Juan de los Lagos,Jalisco,unkwown,21.25431265,-102.281371058498,21.0959862,21.4127262,-102.4945898,-102.1230364,14.0,14073.0,0,46
San Juan del Río,boundary,administrative,unkwown,San Juan del Río,Querétaro,unkwown,20.38704625,-100.011962748276,20.2067147,20.547388,-100.196026,-99.8354424,22.0,22016.0,0,47
San Luis Potosí,boundary,administrative,unkwown,unkwown,San Luis Potosí,unkwown,22.5000001,-100.4949145,21.1596935,24.4915166,-102.2960384,-98.325967,24.0,0.0,1,48
San Miguel de Allende,boundary,administrative,unkwown,San Miguel de Allende,Guanajuato,unkwown,20.9130501,-100.735660026662,20.7160881,21.10911,-101.0866808,-100.4699582,11.0,11003.0,0,49
Taxco,place,town,unkwown,Taxco de Alarcón,Guerrero,40200,18.5565446,-99.6052838,18.5165446,18.5965446,-99.6452838,-99.5652838,12.0,12055.0,0,50
Tequisquiapan,boundary,administrative,unkwown,Tequisquiapan,Querétaro,unkwown,20.54221585,-99.9478987274392,20.4315847,20.6529292,-100.0849622,-99.8281242,22.0,22017.0,0,51
Tlaxcala,boundary,administrative,unkwown,unkwown,Tlaxcala,unkwown,19.416667,-98.166667,19.105072,19.728917,-98.7083986,-97.625439,29.0,0.0,0,52
Toluca,place,city,Toluca,Toluca,México,50000,19.292545,-99.6569007,19.132545,19.452545,-99.8169007,-99.4969007,15.0,15106.0,1,53
Tuxtla Gutiérrez,place,city,Tuxtla Gutiérrez,Tuxtla Gutiérrez,Chiapas,29019,16.753801,-93.115959,16.593801,16.913801,-93.275959,-92.955959,7.0,7101.0,1,54
Valle de Bravo,boundary,administrative,unkwown,Valle de Bravo,México,unkwown,19.1849101,-100.15126325881,19.078708,19.2911052,-100.2643176,-99.9592946,15.0,15110.0,1,55
Villahermosa,place,city,Villahermosa,Centro,Tabasco,unkwown,17.9884657,-92.9366326,17.9571789,18.0463178,-92.9875088,-92.885027,27.0,27004.0,1,56
Xalapa,place,city,Xalapa,Xalapa,Veracruz,91170,19.5408338,-96.9146374,19.3808338,19.7008338,-97.0746374,-96.7546374,30.0,30087.0,1,57
Zacatecas,boundary,administrative,unkwown,unkwown,Zacatecas,unkwown,23.0916177,-102.9333954,21.0418694,25.1252355,-104.353533,-100.7423242,32.0,0.0,1,58
Ciudad Juárez,place,city,Ciudad Juárez,Juárez,Chihuahua,32001,31.7372575,-106.485655,31.5772575,31.8972575,-106.645655,-106.325655,8.0,8037.0,1,59
Mexicali,place,city,Mexicali,Mexicali,Baja California,21000,32.6405247,-115.474899,32.4805247,32.8005247,-115.634899,-115.314899,2.0,2002.0,1,60
Piedras Negras,boundary,administrative,Piedras Negras,Piedras Negras,Coahuila,unkwown,28.704596,-100.5167137,28.6397011,28.7424114,-100.5900415,-100.5004128,5.0,5025.0,1,61
Tecate,boundary,administrative,Tecate,Tecate,Baja California,unkwown,32.5653831,-116.6298787,32.5472999,32.5792081,-116.6617402,-116.5916173,2.0,2003.0,0,62
Tijuana,place,city,Tijuana,Tijuana,Baja California,22000,32.5317397,-117.019529,32.3717397,32.6917397,-117.179529,-116.859529,2.0,2004.0,1,63
Ciudad de México,boundary,administrative,Ciudad de México,unkwown,Ciudad de México,unkwown,19.4326296,-99.1331785,19.2419543,19.5796926,-99.304945,-98.9750504,9.0,0.0,1,64
Guadalajara,place,city,Guadalajara,Guadalajara,Jalisco,44450,20.6720375,-103.338396,20.5120375,20.8320375,-103.498396,-103.178396,14.0,14039.0,1,65
Monterrey,place,city,Monterrey,Monterrey,Nuevo León,64010,25.6802019,-100.315258,25.5202019,25.8402019,-100.475258,-100.155258,19.0,19039.0,1,66
Atlixco,place,town,unkwown,Atlixco,Puebla,74260,18.908889,-98.437778,18.868889,18.948889,-98.477778,-98.397778,21.0,21019.0,0,67
Bustamante,boundary,administrative,unkwown,Bustamante,Nuevo León,unkwown,26.57133255,-100.5700509096,26.431871,26.7108734,-100.6960929,-100.4384752,19.0,19008.0,0,68
Chapala,boundary,administrative,unkwown,Chapala,Jalisco,unkwown,20.27976445,-103.220358556238,20.1526048,20.4065625,-103.4220109,-103.0229883,14.0,14030.0,0,69
Chichen Itzá,boundary,protected_area,unkwown,Tinum,Yucatán,unkwown,20.68285195,-88.5687196355205,20.6773364,20.6884657,-88.5724372,-88.5654012,31.0,31091.0,1,70
Chignahuapan,boundary,administrative,unkwown,Chignahuapan,Puebla,73300,19.8213915,-98.1177571460357,19.667476,19.9753069,-98.3150043,-97.9607969,21.0,21053.0,0,71
Cuernavaca,boundary,administrative,unkwown,Cuernavaca,Morelos,unkwown,18.93313205,-99.2599579465707,18.8419111,19.02465,-99.3420117,-99.1805441,17.0,17007.0,1,72
Cuetzalan,place,town,unkwown,Cuetzalan del Progreso,Puebla,unkwown,20.018611,-97.521111,19.978611,20.058611,-97.561111,-97.481111,21.0,21043.0,0,73
El Oro,boundary,administrative,unkwown,El Oro,México,unkwown,19.7959711,-100.066302000554,19.7313373,19.860427,-100.1493285,-99.9817313,15.0,15064.0,0,74
Ensenada,boundary,administrative,Ensenada,Ensenada,Baja California,unkwown,31.8658887,-116.602983,31.6518752,31.9462343,-116.7568468,-116.4972675,2.0,2001.0,1,75
Hidalgo del Parral,boundary,administrative,unkwown,Hidalgo del Parral,Chihuahua,unkwown,27.11538475,-105.764287997729,26.8623592,27.3681834,-105.9782353,-105.3973646,8.0,8032.0,0,76
Huasca de Ocampo,boundary,administrative,unkwown,Huasca de Ocampo,Hidalgo,unkwown,20.2231549,-98.5552467331717,20.0993059,20.3470346,-98.6374117,-98.4614516,13.0,13024.0,0,77
Huauchinango,boundary,administrative,unkwown,Huauchinango,Puebla,unkwown,20.1782494,-98.0490728107056,20.0549627,20.3014199,-98.1400164,-97.9546609,21.0,21071.0,0,78
Huichapan,boundary,administrative,unkwown,Huichapan,Hidalgo,unkwown,20.3905629,-99.6821642144064,20.2684705,20.5124063,-99.8591064,-99.4957666,13.0,13029.0,0,79
Ixtapan de la Sal,boundary,administrative,unkwown,Ixtapan de la Sal,México,unkwown,18.8409773,-99.6929242836454,18.7688389,18.9130522,-99.7627286,-99.6093527,15.0,15040.0,0,80
Izamal,boundary,administrative,unkwown,Izamal,Yucatán,unkwown,20.9333726,-89.018267,20.9184565,20.9507087,-89.0442016,-88.9976325,31.0,31040.0,0,81
Izúcar de Matamoros,boundary,administrative,unkwown,Izúcar de Matamoros,Puebla,unkwown,18.50658165,-98.423077788842,18.3294306,18.6835422,-98.5653799,-98.287749,21.0,21085.0,0,82
Jerez,boundary,administrative,unkwown,Jerez,Zacatecas,unkwown,22.7105933,-103.00147264243,22.4961701,22.9244058,-103.249627,-102.7578718,32.0,32020.0,0,83
Linares,boundary,administrative,unkwown,Linares,Nuevo León,unkwown,24.85300565,-99.4103418536101,24.5539743,25.1520694,-99.9618919,-99.156468,19.0,19033.0,0,84
Nuevo Casas Grandes,boundary,administrative,unkwown,Nuevo Casas Grandes,Chihuahua,unkwown,30.50629595,-107.665425595614,30.1536894,30.8592567,-107.9985388,-107.4060475,8.0,8050.0,1,85
Pahuatlán,boundary,administrative,unkwown,Pahuatlán,Puebla,unkwown,20.28763145,-98.1450863949682,20.2201741,20.3545116,-98.1986101,-98.06988,21.0,21109.0,0,86
Mineral del Monte,place,town,unkwown,Mineral del Monte,Hidalgo,42130,20.1384604,-98.6733356,20.0984604,20.1784604,-98.7133356,-98.6333356,13.0,13039.0,0,87
Saltillo,place,city,Saltillo,Saltillo,Coahuila,25000,25.4230425,-100.9927509,25.2630425,25.5830425,-101.1527509,-100.8327509,5.0,5030.0,1,88
San Andrés Cholula,boundary,administrative,unkwown,San Andrés Cholula,Puebla,unkwown,19.02204645,-98.2872661223453,18.9756539,19.0684977,-98.3581922,-98.2238595,21.0,21119.0,0,89
San Martín Texmelucan,boundary,administrative,unkwown,San Martín Texmelucan,Puebla,unkwown,19.2659835,-98.4248779545685,19.2042335,19.3276908,-98.4927319,-98.364546,21.0,21132.0,0,90
San Pedro Cholula,boundary,administrative,unkwown,San Pedro Cholula,Puebla,unkwown,19.0724114,-98.3223670791959,19.0260178,19.118687,-98.4043503,-98.2610432,21.0,21140.0,0,91
Santiago,boundary,administrative,unkwown,Santiago,Nuevo León,unkwown,25.37437795,-100.260943939672,25.2237785,25.5263119,-100.5308828,-100.0313142,19.0,19049.0,0,92
Sombrerete,place,town,unkwown,Sombrerete,Zacatecas,99100,23.6354312,-103.6410119,23.5954312,23.6754312,-103.6810119,-103.6010119,32.0,32042.0,0,93
Tampico,boundary,administrative,unkwown,Tampico,Tamaulipas,unkwown,22.27010965,-97.8948673559856,22.2069658,22.3330507,-98.000324,-97.8363806,28.0,28038.0,1,94
Tapachula,boundary,administrative,unkwown,Tapachula,Chiapas,unkwown,14.9258055,-92.3221956786804,14.618128,15.2355141,-92.4656229,-92.1627529,7.0,7089.0,1,95
Tehuacán,boundary,administrative,unkwown,Tehuacán,Puebla,unkwown,18.46580115,-97.397834799724,18.3238829,18.6076771,-97.6379845,-97.2077563,21.0,21156.0,1,96
Teziutlán,boundary,administrative,unkwown,Teziutlán,Puebla,unkwown,19.87399265,-97.3715628671056,19.7682529,19.9795457,-97.4069324,-97.3153007,21.0,21174.0,0,97
Tlatlauquitepec,boundary,administrative,unkwown,Tlatlauquitepec,Puebla,unkwown,19.83864055,-97.5057372570162,19.636537,20.0408776,-97.6004933,-97.3911169,21.0,21186.0,0,98
Tula de Allende,boundary,administrative,unkwown,Tula de Allende,Hidalgo,unkwown,20.0489487,-99.3729561601143,19.9300802,20.1702481,-99.5187767,-99.2547712,13.0,13076.0,0,99
Tuxtepec,place,city,Tuxtepec,San Juan Bautista Tuxtepec,Oaxaca,68320,18.0874632,-96.1227767,17.9274632,18.2474632,-96.2827767,-95.9627767,20.0,20184.0,0,100
Uxmal,place,village,unkwown,Santa Elena,Yucatán,97890,20.3602902,-89.7705605,20.3402902,20.3802902,-89.7905605,-89.7505605,31.0,31066.0,0,101
Valladolid,boundary,administrative,Valladolid,Valladolid,Yucatán,unkwown,20.6902505,-88.2016999,20.6706464,20.7140974,-88.2322171,-88.1736523,31.0,31102.0,0,102
Xicotepec,boundary,administrative,unkwown,unkwown,Puebla,73080,20.2767053,-97.9606968,20.2291903,20.434076,-98.0446866,-97.7500388,21.0,0.0,0,103
Zacatlán,boundary,administrative,unkwown,Zacatlán,Puebla,unkwown,19.96059515,-98.005721363417,19.8290079,20.0921482,-98.1749966,-97.8561454,21.0,21208.0,0,104
San Quintín,place,town,unkwown,San Quintín,Baja California,22932,30.5613719,-115.938162,30.5213719,30.6013719,-115.978162,-115.898162,2.0,2006.0,0,105
Tetela de Ocampo,boundary,administrative,unkwown,Tetela de Ocampo,Puebla,73640,19.8114617,-97.7872630675154,19.695264,19.9276437,-97.9125187,-97.6431844,21.0,21172.0,0,106
Metepec,boundary,administrative,unkwown,Metepec,México,unkwown,19.25113375,-99.5937281303492,19.2156544,19.2871671,-99.647046,-99.5127926,15.0,15054.0,0,107
Villa del Carbón,boundary,administrative,unkwown,Villa del Carbón,México,54325,19.74446355,-99.4520652760428,19.6138614,19.874997,-99.6498895,-99.3732499,15.0,15112.0,0,108
Tecozautla,boundary,administrative,unkwown,Tecozautla,Hidalgo,unkwown,20.5396985,-99.6526085293211,20.4202342,20.6591315,-99.8350798,-99.4492329,13.0,13059.0,0,109
Zempoala,boundary,administrative,unkwown,Zempoala,Hidalgo,unkwown,19.92594405,-98.643349919982,19.8131844,20.0386767,-98.8309831,-98.5280638,13.0,13083.0,0,110
Coatepec,boundary,administrative,unkwown,unkwown,Veracruz,unkwown,19.4543134,-96.9596375,19.3572737,19.5323907,-97.1062296,-96.7970344,30.0,0.0,0,111
Orizaba,place,city,Orizaba,Orizaba,Veracruz,94300,18.8497366,-97.1060062,18.6897366,19.0097366,-97.2660062,-96.9460062,30.0,30118.0,1,112
Chiapa de Corzo,boundary,administrative,unkwown,Chiapa de Corzo,Chiapas,29160,16.60132245,-92.9968155874883,16.2922001,16.9103297,-93.1053972,-92.8022833,7.0,7027.0,0,113
Zapopan,boundary,administrative,unkwown,Zapopan,Jalisco,unkwown,20.7916423,-103.49110360410036,20.5847883,20.9982375,-103.6650327,-103.3059749,,,0,114
Zapopan,place,city,Zapopan,Zapopan,Jalisco,45101,20.7211203,-103.3913671,20.5611203,20.8811203,-103.5513671,-103.2313671,,,0,115
Atlacomulco,boundary,administrative,unkwown,Atlacomulco,Estado de México,unkwown,19.81591915,-99.86811932469178,19.7303332,19.9015838,-99.974196,-99.7051345,,,0,116
Jilotepec,boundary,administrative,unkwown,Jilotepec,Estado de México,unkwown,20.0169568,-99.6281796339068,19.8528732,20.1808205,-99.7364591,-99.4326922,,,0,117
Tejupilco,boundary,administrative,unkwown,Tejupilco,Estado de México,51400,18.8906324,-100.12785901620762,18.7593065,19.0222899,-100.53862,-99.9910697,,,0,118
Tenancingo,boundary,administrative,unkwown,Tenancingo,Estado de México,unkwown,18.964659150000003,-99.5689820946806,18.8185452,19.0412145,-99.6432762,-99.4909499,,,0,119
Chetumal,boundary,administrative,Chetumal,Othón P. Blanco,Quintana Roo,unkwown,18.5081738,-88.297144,18.4902097,18.5635056,-88.3577228,-88.2611386,,,1,120
Guamúchil,boundary,administrative,Guamúchil,Salvador Alvarado,Sinaloa,unkwown,25.4575492,-108.0755437,25.4283327,25.4898226,-108.1065174,-108.0439152,,,0,121
Bahía Kino,boundary,administrative,Bahía Kino,Hermosillo,Sonora,83348,28.8246532,-111.9371567710836,28.8141592,28.8678231,-112.0323442,-111.9231805,,,1,122
Navojoa,place,city,Navojoa,Navojoa,Sonora,85870,27.0721872,-109.4438227,26.9121872,27.2321872,-109.6038227,-109.2838227,,,1,123
Altamira,boundary,administrative,unkwown,Altamira,Tamaulipas,unkwown,22.5630208,-98.1165183888334,22.3215555,22.8044522,-98.3434849,-97.8196597,,,0,124
Ciudad Madero,place,city,Ciudad Madero,Ciudad Madero,Tamaulipas,89490,22.2474012,-97.8373079,22.0874012,22.4074012,-97.9973079,-97.6773079,,,0,125
Matamoros,place,city,Matamoros,Matamoros,Tamaulipas,87300,25.8810158,-97.5064866,25.7210158,26.0410158,-97.6664866,-97.3464866,,,1,126
Reynosa,place,city,Reynosa,Reynosa,Tamaulipas,88500,26.0907673,-98.2788191,25.9307673,26.2507673,-98.4388191,-98.1188191,,,1,127
Soto la Marina,boundary,administrative,unkwown,Soto la Marina,Tamaulipas,unkwown,23.87599915,-98.0502640007194,23.2722633,24.4788604,-98.5131065,-97.6796182,,,0,128
Úrsulo Galván,boundary,administrative,unkwown,Úrsulo Galván,Veracruz,unkwown,19.4460638,-96.39799962655596,19.3943773,19.4974214,-96.4807661,-96.3086576,,,0,129
Actopan,boundary,administrative,unkwown,Actopan,Veracruz,91490,19.56092075,-96.5291227992801,19.3946562,19.7272299,-96.7941652,-96.33018,,,0,130
Boca del Río,boundary,administrative,unkwown,Boca del Río,Veracruz,unkwown,19.11290675,-96.11184810632824,19.0543119,19.1717424,-96.1496576,-96.0927662,,,0,131
Veracruz,place,city,Veracruz,Municipio de Veracruz,Veracruz,91701,19.2003429,-96.1383572,19.0403429,19.3603429,-96.2983572,-95.9783572,,,1,132
Puente Nacional,boundary,administrative,unkwown,Puente Nacional,Veracruz,unkwown,19.31371095,-96.53554027886008,19.188545,19.4382775,-96.818929,-96.3722592,,,0,133
La Antigua,boundary,administrative,unkwown,La Antigua,Veracruz,91680,19.3176799,-96.31864092519668,19.2208176,19.4143852,-96.3847983,-96.2215552,,,0,134
Alvarado,boundary,administrative,unkwown,Alvarado,Veracruz,unkwown,18.82874235,-95.9238540059007,18.5550353,19.104054,-96.1208094,-95.5099327,,,0,135
Telchac Puerto,boundary,administrative,unkwown,Telchac Puerto,Yucatán,97407,21.342134,-89.263981,21.3358678,21.3478358,-89.3095726,-89.2286974,,,0,136
Telchac Puerto,boundary,administrative,unkwown,Telchac Puerto,Yucatán,97407,21.30832045,-89.2736809132715,21.2722529,21.3482022,-89.3274599,-89.2238901,,,0,137
Progreso,boundary,administrative,unkwown,Progreso,Yucatán,unkwown,21.24599755,-89.68103981388046,21.1421398,22.528955,-91.4000972,-89.4873394,,,0,138
Progreso,boundary,administrative,Progreso,Progreso,Yucatán,unkwown,21.2822136,-89.6636637,21.2640731,22.528955,-91.4000972,-89.6244971,,,0,139
Xalatlaco,boundary,administrative,unkwown,unkwown,Estado de México,unkwown,19.1843821,-99.4145622,19.1215065,19.2110808,-99.4574555,-99.2786952,,,0,140
Apatzingán,place,city,Apatzingán,Apatzingán,Michoacán,60600,19.0913792,-102.3537356,18.9313792,19.2513792,-102.5137356,-102.1937356,,,1,141
Jiutepec,boundary,administrative,unkwown,Jiutepec,Morelos,unkwown,18.88638935,-99.17012240115317,18.835966,18.9367008,-99.2171382,-99.1193803,,,0,142
Montemorelos,boundary,administrative,unkwown,Montemorelos,Nuevo León,unkwown,25.16329245,-99.90360033407642,24.9116498,25.4203417,-100.1710628,-99.3692634,,,0,143
Sabinas Hidalgo,boundary,administrative,unkwown,Sabinas Hidalgo,Nuevo León,65270,26.5749243,-100.15503033104488,26.2388312,26.9129131,-100.366005,-99.9212743,,,0,144
Municipio de Los Cabos,boundary,administrative,unkwown,Municipio de Los Cabos,Baja California Sur,unkwown,23.271848050000003,-109.6897684130629,22.8716256,23.6714818,-110.1206625,-109.4131729,,,0,145
Monclova,place,city,Monclova,Monclova,Coahuila,25700,26.8999988,-101.4171173,26.7399988,27.0599988,-101.5771173,-101.2571173,,,1,146
San Juan de Sabinas,boundary,administrative,unkwown,San Juan de Sabinas,Coahuila,unkwown,28.0646267,-101.39035376389008,27.879023,28.2395506,-101.6135632,-101.1897732,,,0,147
Autlán de Navarro,boundary,administrative,unkwown,Autlán de Navarro,Jalisco,unkwown,19.75703,-104.31834015548738,19.5878862,19.9259885,-104.4735677,-104.1364199,,,0,148
Ciudad Guzmán,place,city,Ciudad Guzmán,Zapotlán el Grande,Jalisco,49070,19.7001632,-103.463935,19.5401632,19.8601632,-103.623935,-103.303935,,,0,149
Etzatlán,boundary,administrative,unkwown,Etzatlán,Jalisco,unkwown,20.7612209,-104.13063108161292,20.6353137,20.8870676,-104.2481494,-104.0169245,,,0,150
Cuautitlán Izcalli,place,city,Cuautitlán Izcalli,Cuautitlán Izcalli,Estado de México,54700,19.6531356,-99.2145002,19.4931356,19.8131356,-99.3745002,-99.0545002,,,0,151
Ciudad López Mateos,place,city,Ciudad López Mateos,Atizapán de Zaragoza,Estado de México,52940,19.5733975,-99.243949,19.4133975,19.7333975,-99.403949,-99.083949,,,0,152
Tepotzotlán,boundary,administrative,unkwown,Tepotzotlán,Estado de México,unkwown,19.7187644,-99.30693310548484,19.6454469,19.7921548,-99.4216773,-99.1953895,,,0,153
Teoloyucan,boundary,administrative,unkwown,Teoloyucan,Estado de México,unkwown,19.75797385,-99.17303298734156,19.720338,19.7956101,-99.2165446,-99.138476,,,0,154
Buenavista,place,city,Buenavista,Tultitlán,Estado de México,54958,19.602237,-99.1663806,19.442237,19.762237,-99.3263806,-99.0063806,,,0,155
Apodaca,place,city,Apodaca,Apodaca,Nuevo León,66600,25.7816542,-100.1887501,25.6216542,25.9416542,-100.3487501,-100.0287501,,,0,156
Cintalapa,boundary,administrative,unkwown,Cintalapa,Chiapas,30400,16.7522451,-93.83280202563463,16.3660935,17.1369649,-94.139156,-93.5550878,,,0,157
Tizimin,boundary,administrative,Tizimin,Tizimín,Yucatán,97775,21.1428919,-88.1524717,21.1069696,21.1657726,-88.1751945,-88.1163968,,,0,158
Mérida,boundary,administrative,unkwown,Mérida,Yucatán,unkwown,20.94435405,-89.64617243553472,20.6971062,21.1911038,-89.8011991,-89.4513034,,,1,159
Valladolid,boundary,administrative,unkwown,Valladolid,Yucatán,unkwown,20.61427875,-88.09251780107554,20.349537,20.879773,-88.3249305,-87.9380065,,,0,160
Tepatitlán de Morelos,boundary,administrative,Tepatitlán de Morelos,unkwown,Jalisco,unkwown,20.8151477,-102.758809,20.5919562,21.0425342,-102.9433751,-102.4831999,,,0,161
Ocotlán,boundary,administrative,Ocotlán,unkwown,Jalisco,unkwown,20.3514474,-102.768809,20.2908692,20.4835199,-102.881404,-102.5951152,,,0,162
Poncitlán,boundary,administrative,unkwown,Poncitlán,Jalisco,unkwown,20.2639653,-102.88279855436468,20.1060478,20.4223378,-103.1157327,-102.6789145,,,0,163
Mascota,boundary,administrative,unkwown,Mascota,Jalisco,unkwown,20.5533013,-104.76338164381984,20.2660862,20.8405896,-105.1752893,-104.5315309,,,0,164
Zapotlanejo,boundary,administrative,unkwown,Zapotlanejo,Jalisco,unkwown,20.6396569,-103.05151855846847,20.4832354,20.7960676,-103.2836633,-102.869427,,,0,165
Sayula,boundary,administrative,unkwown,Sayula,Jalisco,unkwown,19.8571638,-103.60889569436723,19.7653015,19.9490205,-103.7073995,-103.4982246,,,0,166
Arandas,boundary,administrative,unkwown,Arandas,Jalisco,unkwown,20.74931205,-102.3142822111025,20.5875762,20.9110817,-102.5501104,-102.0515102,,,0,167
La Barca,boundary,administrative,unkwown,La Barca,Jalisco,unkwown,20.35720795,-102.50327003201096,20.2584653,20.455242,-102.6657818,-102.3411247,,,0,168
Ayotlán,boundary,administrative,unkwown,Ayotlán,Jalisco,unkwown,20.47223855,-102.3641292878145,20.3346551,20.6099618,-102.4647412,-102.219352,,,0,169
Tapalpa,boundary,administrative,unkwown,Tapalpa,Jalisco,unkwown,19.946663450000003,-103.77610588768836,19.8002252,20.092909,-103.8971759,-103.621477,,,0,170
Ameca,boundary,administrative,unkwown,Ameca,Jalisco,unkwown,20.5347004,-104.06466098593744,20.3750558,20.6945727,-104.2680694,-103.8567804,,,0,171
González,boundary,administrative,unkwown,González,Tamaulipas,89700,22.790387350000003,-98.57631895542931,22.3880068,23.1925646,-98.907307,-98.2892494,,,0,172
Brownsville,boundary,administrative,Brownsville,Cameron County,Texas,unkwown,25.9024289,-97.4981698,25.84019,26.2175148,-97.6445529,-97.2736409,,,0,173
Nuevo Laredo,place,city,Nuevo Laredo,Nuevo Laredo,Tamaulipas,88209,27.4930246,-99.507425,27.3330246,27.6530246,-99.667425,-99.347425,,,1,174
Laredo,boundary,administrative,Laredo,Webb County,Texas,unkwown,27.5075005,-99.5069922,27.36649,27.7444122,-99.7503109,-99.3310257,,,0,175
Ixtlán del Río,boundary,administrative,unkwown,Ixtlán del Río,Nayarit,unkwown,21.02905655,-104.32773695848007,20.848432,21.2098342,-104.4554184,-104.2010593,,,0,176
Compostela,boundary,administrative,unkwown,unkwown,Nayarit,unkwown,21.2375206,-104.8993726,20.8541356,21.3733555,-105.3723148,-104.7894424,,,0,177
Tepic,place,city,Tepic,Tepic,Nayarit,63000,21.5119156,-104.8915889,21.3519156,21.6719156,-105.0515889,-104.7315889,,,1,178
Ahuacatlán,boundary,administrative,unkwown,Ahuacatlán,Nayarit,unkwown,21.05124985,-104.56146847002329,20.924159,21.1782492,-104.7316638,-104.4058846,,,0,179
Bahía de Banderas,boundary,administrative,unkwown,Bahía de Banderas,Nayarit,unkwown,20.8279022,-105.31807659099358,20.6696404,20.9864277,-105.539369,-104.957415,,,0,180
San Blas,boundary,administrative,unkwown,San Blas,Nayarit,unkwown,21.5381431,-105.18387835294484,21.291871,21.7749462,-106.7032233,-105.0222384,,,0,181
Xalisco,boundary,administrative,unkwown,Xalisco,Nayarit,unkwown,21.39924215,-104.94217796977593,21.3016818,21.4964759,-105.1533674,-104.7583316,,,0,182
Santiago Ixcuintla,boundary,administrative,unkwown,Santiago Ixcuintla,Nayarit,unkwown,21.959108,-105.55198949609716,21.6243529,22.2925549,-105.8932431,-104.8610956,,,1,183
Tepoztlán,boundary,administrative,unkwown,Tepoztlán,Morelos,unkwown,18.9914959,-99.10254532724872,18.8960881,19.089296,-99.1933469,-99.0145629,,,0,184
Emiliano Zapata,boundary,administrative,unkwown,Emiliano Zapata,Morelos,unkwown,18.80939095,-99.18603461532136,18.7420392,18.8769416,-99.2227817,-99.1449147,,,0,185
Xochitepec,boundary,administrative,unkwown,Xochitepec,Morelos,unkwown,18.76533085,-99.2338980708908,18.7040357,18.8267955,-99.2979682,-99.1867189,,,0,186
Temixco,boundary,administrative,unkwown,Temixco,Morelos,unkwown,18.8476735,-99.24559450820178,18.7735088,18.9218648,-99.3523077,-99.2031143,,,0,187
Jojutla,boundary,administrative,unkwown,Jojutla,Morelos,unkwown,18.600025100000003,-99.22997156620391,18.5204099,18.6794994,-99.3019174,-99.1478727,,,0,188
Tlaquiltenango,boundary,administrative,unkwown,Tlaquiltenango,Morelos,62988,18.49892245,-99.10152846053538,18.332373,18.6627354,-99.2350446,-98.914097,,,0,189
Puente de Ixtla,boundary,administrative,unkwown,Puente de Ixtla,Morelos,unkwown,18.5783377,-99.31048549615863,18.450999,18.7061021,-99.3801398,-99.175923,,,0,190
Xoxocotla,boundary,administrative,unkwown,Xoxocotla,Morelos,unkwown,18.6778715,-99.2525404015824,18.6316305,18.72436,-99.2916595,-99.1936463,,,0,191
Lázaro Cárdenas,place,city,Lázaro Cárdenas,Lázaro Cárdenas,Michoacán,60950,17.9594769,-102.198659,17.7994769,18.1194769,-102.358659,-102.038659,,,1,192
Jiquilpan,boundary,administrative,unkwown,unkwown,Michoacán,unkwown,19.9901664,-102.7191956,19.8832712,20.0516482,-102.8892628,-102.6536347,,,0,193
Uruapan,place,city,Uruapan,Uruapan,Michoacán,60050,19.4147269,-102.0522647,19.2547269,19.5747269,-102.2122647,-101.8922647,,,1,194
Pátzcuaro,boundary,administrative,unkwown,Pátzcuaro,Michoacán,unkwown,19.50184395,-101.66021177533511,19.4005597,19.6027485,-101.8122475,-101.418925,,,1,195
Zamora,place,city,Zamora,Zamora,Michoacán,59670,19.9828948,-102.28363,19.8228948,20.1428948,-102.44363,-102.12363,,,1,196
Zitácuaro,place,city,Zitácuaro,Zitácuaro,Michoacán,61506,19.4344012,-100.355314,19.2744012,19.5944012,-100.515314,-100.195314,,,0,197
Hidalgo,boundary,administrative,unkwown,Hidalgo,Michoacán,unkwown,19.62612675,-100.63674778914242,19.3895586,19.8624531,-100.8568589,-100.4861351,,,0,198
Macuspana,boundary,administrative,unkwown,Macuspana,Tabasco,unkwown,17.8556822,-92.4223905822218,17.5402254,18.1708617,-92.7180284,-92.127138,,,0,199
Cárdenas,place,city,Cárdenas,Cárdenas,Tabasco,86500,17.990878,-93.3753314,17.830878,18.150878,-93.5353314,-93.2153314,,,0,200
Cunduacán,boundary,administrative,unkwown,Cunduacán,Tabasco,86690,18.08729035,-93.232135621376,17.9487527,18.2257759,-93.4083509,-93.0231052,,,0,201
Municipio de Tecate,boundary,administrative,unkwown,Municipio de Tecate,Baja California,unkwown,32.43593355,-116.27365716865516,32.2359122,32.636087,-116.7017648,-115.8742048,,,0,202
Zihuatanejo de Azueta,boundary,administrative,unkwown,Zihuatanejo de Azueta,Guerrero,unkwown,17.80789995,-101.49695243500553,17.5547679,18.0614062,-101.7149405,-101.2005252,,,0,203
Acapulco de Juárez,boundary,administrative,unkwown,Acapulco de Juárez,Guerrero,unkwown,16.95844785,-99.69553012926642,16.6834462,17.2336827,-100.0021524,-99.473636,,,0,204
Chilpancingo,place,city,Chilpancingo,Chilpancingo de los Bravo,Guerrero,39000,17.5542149,-99.5048416,17.3942149,17.7142149,-99.6648416,-99.3448416,,,1,205
Ciudad Obregón,place,city,Ciudad Obregón,Cajeme,Sonora,85080,27.4846619,-109.9337782,27.3246619,27.6446619,-110.0937782,-109.7737782,,,1,206
Guaymas,place,city,Guaymas,Guaymas,Sonora,85400,27.9216441,-110.8994059,27.7616441,28.0816441,-111.0594059,-110.7394059,,,1,207
Heroica Caborca,place,city,Heroica Caborca,Caborca,Sonora,83600,30.7166014,-112.1562598,30.5566014,30.8766014,-112.3162598,-111.9962598,,,0,208
Puerto Peñasco,place,city,Puerto Peñasco,Puerto Peñasco,Sonora,83550,31.3170867,-113.531819,31.1570867,31.4770867,-113.691819,-113.371819,,,1,209
Bacalar,boundary,administrative,unkwown,Bacalar,Quintana Roo,unkwown,18.6782559,-88.3922556,18.6441346,18.6964212,-88.4150415,-88.3836365,,,0,210
Tulum,boundary,administrative,unkwown,unkwown,Quintana Roo,77788,20.1692965,-87.44954812616734,20.1274553,20.2112402,-87.4665279,-87.4300911,,,1,211
Othón P. Blanco,boundary,administrative,unkwown,Othón P. Blanco,Quintana Roo,unkwown,18.43704555,-88.82575815803347,17.8940259,18.9804811,-89.2074142,-87.2983182,,,0,212
Lázaro Cárdenas,boundary,administrative,unkwown,Lázaro Cárdenas,Quintana Roo,unkwown,21.0778823,-87.42705366543109,20.5928096,21.6043479,-87.7442594,-87.0971548,,,1,213
Tulum,boundary,administrative,unkwown,unkwown,Quintana Roo,unkwown,20.429647,-87.6529306,19.7772997,20.5160898,-87.9950654,-87.3026413,,,1,214
Atotonilco de Tula,boundary,administrative,unkwown,Atotonilco de Tula,Hidalgo,unkwown,19.96030475,-99.23686124427782,19.8734942,20.0470551,-99.311032,-99.1425132,,,0,215
Huejutla de Reyes,boundary,administrative,unkwown,Huejutla de Reyes,Hidalgo,43000,21.14338025,-98.3883786710258,21.0343966,21.2523602,-98.6174662,-98.2755163,,,0,216
Tepeji del Río de Ocampo,boundary,administrative,unkwown,Tepeji del Río de Ocampo,Hidalgo,unkwown,19.89368265,-99.34871815266254,19.7712041,20.0163193,-99.4839815,-99.2359475,,,0,217
Cuatro Ciénegas,boundary,administrative,unkwown,Cuatro Ciénegas,Coahuila,27640,26.66650175,-102.37918543947076,26.0515043,27.278843,-103.2131195,-101.4848781,,,1,218
Parras,boundary,administrative,unkwown,Parras,Coahuila,unkwown,25.591946,-102.38397132077614,24.7543967,26.421769,-102.9047131,-101.3792518,,,0,219
Eagle Pass,boundary,administrative,unkwown,Maverick County,Texas,78852,28.7083999,-100.503941,28.663328,28.7456597,-100.5117503,-100.4265893,,,0,220
"Terrenos del Lote ""La Asunción""",boundary,administrative,unkwown,Tuxpan,Veracruz,92773,21.02250365,-97.46744184301372,20.9068224,21.1380418,-97.6298297,-97.3254817,,,0,221
"Terrenos del Lote ""La Isla""",boundary,administrative,unkwown,Tuxpan,Veracruz,unkwown,21.04822535,-97.36332347906428,20.9632387,21.1335521,-97.4162434,-97.3017126,,,0,222
Tuxpan,place,city,Tuxpan,Tuxpan,Veracruz,92800,20.9518378,-97.4045371,20.7918378,21.1118378,-97.5645371,-97.2445371,,,0,223
"Terrenos del Lote ""Álamo""",boundary,administrative,unkwown,Álamo Temapache,Veracruz,92730,20.867075,-97.67676467239212,20.8061735,20.927458,-97.7015001,-97.6623934,,,0,224
"Terrenos del Lote ""Cicuaque""",boundary,administrative,unkwown,Álamo Temapache,Veracruz,unkwown,20.86638575,-97.64775446778934,20.8090845,20.9229561,-97.6636169,-97.6316022,,,0,225
