nombre,estado,municipio,ciudad,cp,lat,lon
Calle José María Morelos y Pavón,Baja California Sur,Municipio de Los Cabos,Cabo San Lucas,23470,22.8982431,-109.9191241
Calle Ignacio Zaragoza,Baja California Sur,Municipio de Los Cabos,Cabo San Lucas,23469,22.8905652,-109.915247
Calle José María Morelos y Pavón,Baja California Sur,Municipio de Los Cabos,Cabo San Lucas,23469,22.8909682,-109.9137716
Calle Revolución de 1910,Baja California Sur,Municipio de Los Cabos,Cabo San Lucas,23469,22.8904798,-109.9119612
Calle Mariano Matamoros,Baja California Sur,Municipio de Los Cabos,Cabo San Lucas,23469,22.8852128,-109.9142941
Avenida Leona Vicario,Baja California Sur,Municipio de Los Cabos,Cabo San Lucas,23470,22.8896292,-109.911573
Calle Ignacio Zaragoza,Baja California Sur,Municipio de Los Cabos,Cabo San Lucas,23469,22.88661745,-109.91248722224753
Calle Francisco Villa,Baja California Sur,Municipio de Los Cabos,Cabo San Lucas,23469,22.8924053,-109.9108374
Boulevard Lázaro Cárdenas,Baja California Sur,Municipio de Los Cabos,Cabo San Lucas,23450,22.8840266,-109.9135678
Calle Revolución de 1910,Baja California Sur,Municipio de Los Cabos,Cabo San Lucas,23469,22.8918885,-109.9099347
Calle Punta Cancún,Quintana Roo,,Cancún,77500,21.1343014,-86.74468265173488
Chan-Chen,Quintana Roo,,,77760,20.21377935,-87.46917053861124
Boulevard Kukulcán,Quintana Roo,,Cancún,75500,21.1359565,-86.74482362152057
Boulevard Kukulcán,Quintana Roo,,Cancún,75500,21.13529235,-86.74660001184444
Calle Punta Cancún,Quintana Roo,,Cancún,77500,21.1346671,-86.74276947877124
Ciclovía Zona Hotelera 1ra Etapa,Quintana Roo,,Cancún,75500,21.13682095,-86.74727858226883
Ciclovía Zona Hotelera 1ra Etapa,Quintana Roo,,Cancún,77500,21.13589665,-86.74150844875919
Acuario Norte,Quintana Roo,,,77760,20.2103774,-87.4668894
Boulevard Kukulcán,Quintana Roo,,Cancún,77500,21.1341645,-86.7494873
Boulevard Kukulcán,Quintana Roo,,Cancún,75500,21.1344859,-86.7497372
Calle Francisco I. Madero,Baja California Sur,Municipio de Loreto,,23880,26.0128333,-111.3430543
Avenida Benito Juárez,Baja California Sur,Municipio de Loreto,,23880,26.0080361,-111.3504105
Avenida Miguel Hidalgo,Baja California Sur,Municipio de Loreto,,23880,26.0099445,-111.3427759
Boulevard Salvatierra,Baja California Sur,Municipio de Loreto,,23880,26.0058219,-111.3520916
Calle Salvatierra,Baja California Sur,Municipio de Loreto,,23880,26.0058196,-111.3528921
Andador Salvatierra,Baja California Sur,Municipio de Loreto,,23880,26.010635,-111.3419825
Paseo A. Lopez Mateos,Baja California Sur,Municipio de Loreto,,23880,26.0126042,-111.33973474583101
Pasoe A. Lopez MAteos,Baja California Sur,Municipio de Loreto,,23880,26.009559600000003,-111.33942646596802
Fernando Jordan,Baja California Sur,Municipio de Loreto,,23880,26.008651800000003,-111.34013363339257
Malecón de Loreto,Baja California Sur,Municipio de Loreto,,23880,26.0061295,-111.33917413477528
Calle Juan N. Álvarez,Guerrero,Iguala de la Independencia,Iguala,40080,18.3464551,-99.5396484
Avenida Vicente Guerrero,Guerrero,Iguala de la Independencia,Iguala,40000,18.344512,-99.5363416
Chinchen Itza,Quintana Roo,,,77762,20.2085743,-87.4776734
Punta Brava,Quintana Roo,,,77737,20.400843199999997,-87.32104465309641
Pino Suarez,Quintana Roo,,,77762,20.2059514,-87.4784155
Puerto Morelos,Quintana Roo,,,77765,20.2067289,-87.4749015
Avenida Tulum,Quintana Roo,,,77765,20.2058226,-87.4788387
Carretera Reforma Agraria - Puerto Juárez,Quintana Roo,,,77760,20.396199799999998,-87.3183442950539
Avenida Tulum,Quintana Roo,,,77765,20.2078381,-87.472774
Calle 10 Sur,Quintana Roo,,,77765,20.2036004,-87.4754336
Carretera Reforma Agraria - Puerto Juárez,Quintana Roo,,,77784,20.3969472,-87.31465180000001
Calle 10 Sur,Quintana Roo,,,77765,20.2027762,-87.4750888
Rafaél E. Melgar,Quintana Roo,Puerto Morelos,,77580,20.8453775,-86.878294
Ninos Heroes,Quintana Roo,Puerto Morelos,,77580,20.849061,-86.8764033
Avenida Javier Rojo Gomez,Quintana Roo,Puerto Morelos,,77580,20.8490398,-86.8756928
Ninos Heroes,Quintana Roo,Puerto Morelos,,77580,20.8496249,-86.8761009
Ninos Heroes,Quintana Roo,Puerto Morelos,,77580,20.8497287,-86.876063
Avenida Javier Rojo Gomez,Quintana Roo,Puerto Morelos,,77580,20.8504334,-86.8747592
Rafaél E. Melgar,Quintana Roo,Puerto Morelos,,77580,20.8400008,-86.8832481
Avenida XelHa,Quintana Roo,,Cancún,77508,21.1624697,-86.8353158
Ninos Heroes,Quintana Roo,Puerto Morelos,,77580,20.8532499,-86.874586
Calle Sac Xib,Quintana Roo,,Cancún,77509,21.1599488,-86.8349732
Avenida XelHa,Quintana Roo,,Cancún,77508,21.1624697,-86.8353158
Calle Sac Xib,Quintana Roo,,Cancún,77509,21.1599488,-86.8349732
Avenida Tankah,Quintana Roo,,Cancún,77509,21.1635212,-86.8344141
Avenida Uxmal,Quintana Roo,,Cancún,77509,21.1668006,-86.8325219
Calle Chiabal,Quintana Roo,,Cancún,77509,21.1603066,-86.8301879
Avenida Sunyaxchen,Quintana Roo,,Cancún,77500,21.1624802,-86.8301438
Chiabal,Quintana Roo,,Cancún,77509,21.1593676,-86.8297231
Avenida Yaxchilán,Quintana Roo,,Cancún,77500,21.162769,-86.8291804
Avenida Yaxchilán,Quintana Roo,,Cancún,77500,21.1617486,-86.8290417
Avenida Yaxchilán,Quintana Roo,,Cancún,77500,21.1605641,-86.8289964
Avenida Paseo Xaman-Ha,Quintana Roo,,Playa del Carmen,77710,20.6082438,-87.09055377293359
Avenida Paseo Xaman-Ha,Quintana Roo,,Playa del Carmen,77717,20.60878145,-87.08871208762423
Avenida Paseo Xaman-Ha,Quintana Roo,,Playa del Carmen,77710,20.6087437,-87.0885689
Avenida Paseo Xaman-Ha,Quintana Roo,,Playa del Carmen,77717,20.60765225,-87.08925897316436
Avenida Paseo Xaman-Ha,Quintana Roo,,Playa del Carmen,77710,20.609333,-87.09280223522703
Avenida Paseo Xaman-Ha,Quintana Roo,,Playa del Carmen,77717,20.6068661,-87.0898595
Paseo Xaman-Ha,Quintana Roo,,Playa del Carmen,77717,20.608148399999997,-87.09308800278373
Avenida Paseo Xaman-Ha,Quintana Roo,,Playa del Carmen,77710,20.6064686,-87.09047206645081
Avenida Paseo Xaman-Ha,Quintana Roo,,Playa del Carmen,77710,20.6078707,-87.0931913
Avenida Paseo Xaman-Ha,Quintana Roo,,Playa del Carmen,77717,20.6095069,-87.0872386
Calle Del Mar,Baja California,Municipio de Playas de Rosarito,Rosarito,22715,32.3501931,-117.06099869431486
Calle General Guadalupe Victoria,Baja California,Municipio de Playas de Rosarito,Rosarito,22715,32.3609681,-117.0630047
Calle Paseo Las Flores,Baja California,Municipio de Playas de Rosarito,Rosarito,22703,32.36286525,-117.05059343278819
Calle del Cedro,Baja California,Municipio de Playas de Rosarito,Rosarito,22710,32.3448352,-117.0597212
Calle del Ébano,Baja California,Municipio de Playas de Rosarito,Rosarito,22700,32.3443501,-117.0611248
Boulevard Benito Juárez García,Baja California,Municipio de Playas de Rosarito,Rosarito,22700,32.343828099999996,-117.05758362050348
Estacionamiento Pabellon.,Baja California,Municipio de Playas de Rosarito,Rosarito,22703,32.375437250000004,-117.06074574392599
Calle Costa Azul,Baja California,Municipio de Playas de Rosarito,Rosarito,22700,32.34088265,-117.05885762970954
Boulevard Benito Juárez García,Baja California,Municipio de Playas de Rosarito,Rosarito,22700,32.3405131,-117.05682291412026
Calle Mar Adriático,Baja California,Municipio de Playas de Rosarito,Rosarito,22700,32.3398847,-117.05779223887032
Avenida Eduardo Mata,Oaxaca,Oaxaca de Juárez,Oaxaca,68120,17.0520006,-96.7200662
Calle del 20 de Noviembre,Oaxaca,Oaxaca de Juárez,Oaxaca,68153,17.054446,-96.7284071
Calle de Flores Magón,Oaxaca,Oaxaca de Juárez,Oaxaca,68000,17.0562141,-96.7266651
Calle de Xicoténcatl,Oaxaca,Oaxaca de Juárez,Oaxaca,68000,17.056908,-96.7216954
Calle del 20 de Noviembre,Oaxaca,Oaxaca de Juárez,Oaxaca,68000,17.0563615,-96.7278063
Calle de Ignacio López Rayón,Oaxaca,Oaxaca de Juárez,Oaxaca,68000,17.0573244,-96.7213717
Calle de Flores Magón,Oaxaca,Oaxaca de Juárez,Oaxaca,68274,17.0577218,-96.7265296
Calle de Armenta y López,Oaxaca,Oaxaca de Juárez,Oaxaca,68000,17.0582619,-96.7244228
Calle de Carlos María Bustamante,Oaxaca,Oaxaca de Juárez,Oaxaca,68000,17.0583608,-96.7254119
Calle de Gustavo Díaz Ordáz,Oaxaca,Oaxaca de Juárez,Oaxaca,68000,17.0563647,-96.7298146
Calle Arroyo Verde,Guanajuato,Municipio de Guanajuato,,36259,20.9809477,-101.29019053431412
Guanajuato-Silao,Guanajuato,Municipio de Guanajuato,Guanajuato,36250,20.985147,-101.28840743699305
Calle Iturbide,Guanajuato,San Luis de la Paz,,37906,21.2960223,-100.521889
Calle tres Marías,Guanajuato,Municipio de Guanajuato,,36255,20.9871838,-101.2845926
Boulevard Euquerio Guerrero,Guanajuato,Municipio de Guanajuato,Guanajuato,36250,20.9879493,-101.2863304
Euquerio Guerrero,Guanajuato,Municipio de Guanajuato,,36053,21.0090666,-101.2731962
Privada Nejayote,Guanajuato,Municipio de Guanajuato,Guanajuato,36086,21.0160962,-101.26667
Carretera Guanajuato-Juventino Rosas,Guanajuato,Municipio de Guanajuato,Guanajuato,36228,20.9392737,-101.2439274
Callejón de Zaragoza,Guanajuato,Municipio de Guanajuato,Guanajuato,36000,21.0072593,-101.25147861647336
Privada Cerro de San Miguel,Guanajuato,Municipio de Guanajuato,Guanajuato,36080,21.013779999999997,-101.25574895231017
Avenida Farallón del Obispo,Guerrero,Acapulco de Juárez,Acapulco,39300,16.8643678,-99.8691547
Calle Martín Alonso Pinzón,Guerrero,Acapulco de Juárez,Acapulco,39300,16.8625147,-99.87432421314224
Calle Francisco Pizarro,Guerrero,Acapulco de Juárez,Acapulco,39300,16.8626969,-99.8749807684323
Calle Doctor Ignacio Chávez,Guerrero,Acapulco de Juárez,Acapulco,39300,16.863938,-99.8770577
5 Avenida Norte,Quintana Roo,Cozumel,San Miguel de Cozumel,77668,20.5126311,-86.9470889
Calle 4 Norte,Quintana Roo,Cozumel,San Miguel de Cozumel,77622,20.5121553,-86.9476945
Calle 2 Norte,Quintana Roo,Cozumel,San Miguel de Cozumel,77668,20.5102671,-86.9469912
5a Av. Sur,Quintana Roo,Cozumel,San Miguel de Cozumel,77667,20.5102692,-86.949012
10 Avenida Norte,Quintana Roo,Cozumel,San Miguel de Cozumel,77668,20.5100322,-86.9480594
Calle 2 Norte,Quintana Roo,Cozumel,San Miguel de Cozumel,77668,20.5095159,-86.9461159
Calle 2 Norte,Quintana Roo,Cozumel,San Miguel de Cozumel,77668,20.5088634,-86.9454175
Calle 10 Norte,Quintana Roo,Cozumel,San Miguel de Cozumel,77600,20.5114214,-86.9423955
5 Avenida Sur,Quintana Roo,Cozumel,San Miguel de Cozumel,77667,20.5077528,-86.9513653
Calle 5 Sur,Quintana Roo,Cozumel,San Miguel de Cozumel,77667,20.5075637,-86.9523301
Calle Nueva Reforma,Baja California Sur,Municipio de La Paz,La Paz,23090,24.1476876,-110.3371479
La Paz,Baja California Sur,Municipio de La Paz,La Paz,,24.2180753,-110.3013538
Callejón Topete,Baja California Sur,Municipio de La Paz,La Paz,23060,24.1476422,-110.3302066
Calle Mariano Abasolo,Baja California Sur,Municipio de La Paz,La Paz,23060,24.1475114,-110.3291352
Calle Belisario Domínguez,Baja California Sur,Municipio de La Paz,La Paz,23060,24.1478813,-110.3278028
Calle Mariano Abasolo,Baja California Sur,Municipio de La Paz,La Paz,23060,24.1423721,-110.3339565
Calle Mariano Abasolo,Baja California Sur,Municipio de La Paz,La Paz,23060,24.15075405,-110.32652195248258
Calle Mariano Abasolo,Baja California Sur,Municipio de La Paz,La Paz,23060,24.140891250000003,-110.33520551036338
Carretera La Paz-Pichilingue,Baja California Sur,Municipio de La Paz,La Paz,23020,24.2032186,-110.2990621
Carretera La Paz-Pichilingue,Baja California Sur,Municipio de La Paz,La Paz,23020,24.202823799999997,-110.2991793026053
Calle Francisco I. Madero,Colima,Manzanillo,Manzanillo,28200,19.050537,-104.3176961
Andador San Pedrito,Colima,Manzanillo,Manzanillo,28200,19.0565746,-104.30483459466508
Calle General Lázaro Cárdenas,Colima,Manzanillo,Manzanillo,28200,19.0629741,-104.3027257
Calle General Lázaro Cárdenas,Colima,Manzanillo,Manzanillo,28200,19.0638817,-104.3025406
Calle General Lázaro Cárdenas,Colima,Manzanillo,Manzanillo,28200,19.0667652,-104.3024965
Andador Playa de Oro,Colima,Manzanillo,Manzanillo,28200,19.0685611,-104.3020569
Calle General Lázaro Cárdenas,Colima,Manzanillo,Manzanillo,28200,19.0692735,-104.3022885
Acceso a la playa,Colima,Manzanillo,Manzanillo,28200,19.0753021,-104.3045241
Avenida General Lázaro Cárdenas,Colima,Manzanillo,Manzanillo,28200,19.0764431,-104.3046918
Calle Alfredo Woodward Téllez,Colima,Manzanillo,Manzanillo,28200,19.0770286,-104.3052376
Calle Bahía Acapulco,Sinaloa,Mazatlán,Mazatlán,82000,23.2323165,-106.38837145911006
Avenida Ejército Mexicano,Sinaloa,Mazatlán,Mazatlán,82018,23.2304261,-106.4222658
Avenida Ejército Mexicano,Sinaloa,Mazatlán,Mazatlán,82016,23.2266696,-106.4208367
Calle Río Papagayo,Sinaloa,Mazatlán,Mazatlán,82010,23.2163126,-106.4153847
Avenida Cruz Lizarraga,Sinaloa,Mazatlán,Mazatlán,82110,23.2226007,-106.4238444
Calle Río Elota,Sinaloa,Mazatlán,Mazatlán,82000,23.22674,-106.4270448
Avenida del Mar,Sinaloa,Mazatlán,Mazatlán,82010,23.2234362,-106.4248891
Avenida del Mar,Sinaloa,Mazatlán,Mazatlán,82000,23.2224878,-106.4242669
Avenida del Mar,Sinaloa,Mazatlán,Mazatlán,82017,23.2246332,-106.4260296
Avenida del Mar,Sinaloa,Mazatlán,Mazatlán,82000,23.228189,-106.4294002
Carretera Lagos de Moreno - Guadalajara,Jalisco,San Pedro Tlaquepaque,,45625,20.62246435,-103.28874086451279
Calle Carlos Salgado,Jalisco,San Pedro Tlaquepaque,Tlaquepaque,45540,20.6229172,-103.2876163846263
Avenida Patria,Jalisco,San Pedro Tlaquepaque,Tlaquepaque,45540,20.62316265,-103.28774888559613
Privada Álvaro Obregón,Jalisco,Zapotlán el Grande,Ciudad Guzmán,49052,19.70356135,-103.4785195167838
Calle Cancún,Jalisco,San Pedro Tlaquepaque,Tlaquepaque,45590,20.6113088,-103.32044441915608
Calle Plan de Valladolid,Jalisco,San Pedro Tlaquepaque,Tlaquepaque,45593,20.617543400000002,-103.32120098953416
Calle Matamoros,Jalisco,San Pedro Tlaquepaque,Tlaquepaque,45500,20.636063,-103.3126511
Calle Miguel Hidalgo y Costilla,Jalisco,Zapotlán el Grande,Ciudad Guzmán,49013,19.70770715,-103.46566385344516
Calle Florida,Jalisco,San Pedro Tlaquepaque,Tlaquepaque,44870,20.6428533,-103.3166281
Calle Clavel,Jalisco,Tonalá,Tonalá,44418,20.6229494,-103.2488058
San Ramón,La Habana,,La Habana,10400,23.0967103,-82.3302257
Patrocinio,La Habana,Diez de Octubre,,10800,23.0898881,-82.3673538
Calle 20 de Noviembre,Aguascalientes,Rincón de Romos,,20603,22.2267874,-102.3193452
Prolongación Alameda,Aguascalientes,Municipio de Aguascalientes,Aguascalientes,20190,21.8837623,-102.2709214
Avenida Licenciado Adolfo López Mateos Oriente,Aguascalientes,Municipio de Aguascalientes,Aguascalientes,20250,21.8777512,-102.2690833
Calle General Ignacio Zaragoza,Aguascalientes,Municipio de Aguascalientes,Aguascalientes,20000,21.8840771,-102.2911074
Calle Petróleos Mexicanos,Aguascalientes,Municipio de Aguascalientes,Aguascalientes,20908,21.8917216,-102.2945272
Boulevard a Zacatecas,Aguascalientes,Municipio de Aguascalientes,Aguascalientes,20135,21.9071108,-102.292197
Calle Licenciado Francisco Primo Verdad,Aguascalientes,Municipio de Aguascalientes,Aguascalientes,20000,21.8841315,-102.2917396
Calle González Saracho,Aguascalientes,Municipio de Aguascalientes,Aguascalientes,20000,21.8828167,-102.2922216
Calle González Saracho,Aguascalientes,Municipio de Aguascalientes,Aguascalientes,20000,21.8825328,-102.2927166
Miguel Hidalgo y Costilla,Aguascalientes,Municipio de Aguascalientes,Aguascalientes,20000,21.882343,-102.2929079
Avenida Luis Donaldo Colosio,Campeche,Municipio de Campeche,San Francisco de Campeche,24040,19.8310587,-90.5394767
Avenida Adolfo Ruíz Cortinez,Campeche,Municipio de Campeche,San Francisco de Campeche,24000,19.847507450000002,-90.53863973668004
Avenida Adolfo Ruíz Cortinez,Campeche,Municipio de Campeche,San Francisco de Campeche,24000,19.84687205,-90.53955437681867
Calle 8 de la Muralla,Campeche,Municipio de Campeche,San Francisco de Campeche,24000,19.845902,-90.5378103
Calle 59 Antes América,Campeche,Municipio de Campeche,San Francisco de Campeche,24000,19.8455568,-90.5383301
Calle 57 de Hidalgo,Campeche,Municipio de Campeche,San Francisco de Campeche,24000,19.8459503,-90.5375281
Calle 61 de La Paz,Campeche,Municipio de Campeche,San Francisco de Campeche,24000,19.845044549999997,-90.53925815459456
Calle 10 Antes del Comercio,Campeche,Municipio de Campeche,San Francisco de Campeche,24000,19.8450376,-90.538144
Calle 8 de la Muralla,Campeche,Municipio de Campeche,San Francisco de Campeche,24000,19.8467543,-90.5361941
Calle 55 Indepencia,Campeche,Municipio de Campeche,San Francisco de Campeche,24000,19.8454479,-90.5363622
Calle José María Morelos,Guanajuato,Celaya,Celaya,38000,20.5213071,-100.8133909
Calle Libertad,Guanajuato,Celaya,Celaya,38000,20.5203048,-100.8107194
Calle Doctor José María Luis Mora,Guanajuato,Celaya,Celaya,38078,20.5182616,-100.8051572
Avenida Profesor Francisco Juárez,Guanajuato,Celaya,Celaya,38010,20.536921800000002,-100.82657798476143
Calle María Sánchez,Guanajuato,Celaya,Celaya,38080,20.51974465,-100.7922325520157
Calle La Cano,Guanajuato,Celaya,Celaya,38080,20.51973425,-100.79220234947749
Boulevard Adolfo López Mateos,Guanajuato,Celaya,Celaya,38080,20.5184854,-100.7903636403799
Carretera a Querétaro,Guanajuato,Celaya,Celaya,38080,20.517885,-100.7890792
Boulevard Adolfo López Mateos,Guanajuato,Celaya,Celaya,38060,20.5191975,-100.8350731
Calle Eje Nor-Poniente,Guanajuato,Celaya,,38013,20.5494551,-100.839411
Calle Del Parque,Chihuahua,Casas Grandes,,,30.1858417,-108.0237319
Calle Méndez,Chihuahua,Municipio de Chihuahua,Chihuahua,31030,28.6226394,-106.0710907
Avenida Tecnológico,Chihuahua,Municipio de Chihuahua,Chihuahua,31240,28.6563109,-106.07890345920718
Avenida Ignacio Allende,Chihuahua,Cuauhtémoc,Cuauhtémoc,31500,28.4059126,-106.8670353
Avenida Ignacio Allende,Chihuahua,Cuauhtémoc,Cuauhtémoc,31500,28.4062078,-106.8669594
Calle 5ta,Chihuahua,Cuauhtémoc,Cuauhtémoc,31500,28.4077253,-106.8642607
Calle De La Llave,Chihuahua,Municipio de Chihuahua,Chihuahua,31000,28.6327547,-106.0740041
Avenida Niños Héroes,Chihuahua,Municipio de Chihuahua,Chihuahua,31350,28.64681245,-106.06926381903494
Avenida Niños Héroes,Chihuahua,Municipio de Chihuahua,Chihuahua,31350,28.6467799,-106.0692876
Avenida Universidad,Chihuahua,Municipio de Chihuahua,Chihuahua,31240,28.6454355,-106.0800711
Obispo de las Casas,Veracruz,Papantla,,93400,20.4461045,-97.3203347
Mariano Escobedo,Veracruz,Papantla,,93400,20.4497162,-97.3187018
José de J. Núñez y Domínguez,Veracruz,Papantla,,93400,20.4458954,-97.3211838
Benito Juárez,Veracruz,Papantla,,93400,20.4490746,-97.32063912282936
Venustiano Carranza,Veracruz,Papantla,,93400,20.4499019,-97.3202196
Juan de la Luz Enríquez,Veracruz,Papantla,,93400,20.4469728,-97.3221242
20 de Noviembre,Veracruz,Papantla,,93400,20.4486459,-97.3224387
5 de Mayo,Veracruz,Papantla,,93400,20.447314,-97.3243457
Vereda Tropical,Veracruz,Papantla,,93400,20.4503809,-97.328468
Avenida Nicolás Bravo Rueda,Colima,Municipio de Colima,Colima,28000,19.238151100000003,-103.72464697423658
Calle Benito Juárez,Colima,Municipio de Colima,Colima,28000,19.2399318,-103.7255677
Pedro Galvan Sur,Colima,Municipio de Colima,Colima,28000,19.2346013,-103.7203501
Calle Benito Juárez,Colima,Municipio de Colima,Colima,28000,19.2400224,-103.72558901209248
Calle Benito Juárez,Colima,Municipio de Colima,Colima,28000,19.2400704,-103.7254309
Calle Benito Juárez,Colima,Municipio de Colima,Colima,28000,19.2401764,-103.7251913
Portal Medellín,Colima,Municipio de Colima,Colima,28000,19.2436345,-103.727934
Calle 5 de Mayo,Colima,Municipio de Colima,Colima,28000,19.243928099999998,-103.72798549768731
Boulevard Licenciado Carlos de la Madrid Bejar,Colima,Municipio de Colima,Colima,28000,19.2158297,-103.721467
Avenida General Lázaro Cárdenas,Colima,Municipio de Colima,Colima,28000,19.24442645,-103.73858627561577
Boulevard Francisco I. Madero,Sinaloa,Culiacán,Culiacán,80000,24.8043209,-107.4018339
Malecón,Sinaloa,Culiacán,Culiacán,80020,24.8089164,-107.4056429
Calle Cristóbal Colón,Sinaloa,Culiacán,Culiacán,80000,24.8054676,-107.3991318
Avenida José María Morelos y Pavón,Sinaloa,Culiacán,Culiacán,80000,24.8058852,-107.3978309
Boulevard Francisco I. Madero,Sinaloa,Culiacán,Culiacán,80000,24.8047129,-107.3972248
Rotarismo,Sinaloa,Culiacán,Culiacán,80020,24.8130151,-107.4131866
Calle Miguel Hidalgo y Costilla,Sinaloa,Culiacán,Culiacán,80000,24.8077898,-107.3985498
Calle Mariano Escobedo,Sinaloa,Culiacán,Culiacán,80000,24.8066144,-107.3958421
Malecón,Sinaloa,Culiacán,Culiacán,80030,24.8130586,-107.401727
Internacional México 15,Sinaloa,Culiacán,Culiacán,80020,24.81503575,-107.41280419532606
Avenida 20 de Noviembre,Durango,Municipio de Durango,Durango,34000,24.0247088,-104.67514622518898
Calle Capitán Pedro Celestino Negrete,Durango,Municipio de Durango,Durango,34100,24.0252179,-104.6734746
Calle 5 de Mayo,Sinaloa,El Fuerte,,81820,26.4218329,-108.6205199
5 de Mayo,Sinaloa,El Fuerte,,81820,26.4211649,-108.61924699329282
Calle Santos Degollado,Sinaloa,El Fuerte,,81820,26.4201443,-108.6205079
Calle Rodolfo G. Robles,Sinaloa,El Fuerte,,81820,26.4207373,-108.6183738
Calle Licenciado Benito Juárez,Sinaloa,El Fuerte,,81820,26.4187689,-108.6220411
Calle General Álvaro Obregón,Sinaloa,El Fuerte,,81820,26.4180857,-108.6201417
Calle General Álvaro Obregón,Sinaloa,El Fuerte,,81820,26.4159874,-108.6189884
Avenida Ejército Mexicano,Sinaloa,Mazatlán,Mazatlán,82018,23.2304261,-106.4222658
Avenida Ejército Mexicano,Sinaloa,Mazatlán,Mazatlán,82016,23.2266696,-106.4208367
Calle Río Elota,Sinaloa,Mazatlán,Mazatlán,82000,23.22674,-106.4270448
Boulevard Manuel de Jesús Clouthier,Guanajuato,León,León,37128,21.16447655,-101.69378494971883
Avenida Guanajuato,Guanajuato,León,León,37160,21.1468582,-101.6860748
Boulevard Juan José Alonso de Torres,Guanajuato,León,León,37157,21.1456374,-101.7103352
Boulevard Adolfo López Mateos Poniente,Guanajuato,León,León,37328,21.1332015,-101.6874827
Avenida Miguel Alemán,Guanajuato,León,León,37000,21.1256787,-101.6857738
Calle 5 de Febrero,Guanajuato,León,León,37000,21.1211376,-101.6820773
Calle Belisario Domínguez,Guanajuato,León,León,37000,21.1209869,-101.6829477277197
Calle 5 de Febrero,Guanajuato,León,León,37000,21.1208974,-101.6822232
Calle Rosas Moreno,Guanajuato,León,León,37000,21.1183708,-101.6828804
Calle Salina Cruz,Guanajuato,León,León,37260,21.1217079,-101.6634444
Calle 16,Sonora,Caborca,Heroica Caborca,83600,30.72473125,-112.1507648814195
Av Gral. Contreras,Sonora,Ures,,84900,29.4290108,-110.3794957
Carretera Hermosillo - Yécora,Sonora,Yécora,,85780,28.3636053,-108.9322368
Av Gral. Contreras,Sonora,Ures,,84900,29.429347550000003,-110.37771429415517
Avenida Domingo Quiroz y Mora,Sonora,Caborca,Heroica Caborca,83600,30.722976699999997,-112.15167873823373
Calle Internacional,Sonora,Caborca,Heroica Caborca,83600,30.72293725,-112.15240958847157
Avenida Domingo Quiroz y Mora,Sonora,Caborca,Heroica Caborca,83600,30.72096945,-112.15028298230969
Jesús Monge Barcelo,Sonora,Ures,,84900,29.4316474,-110.37653893006939
SON 183,Sonora,Ures,,84900,29.42403045,-110.40264529036921
Avenida B,Sonora,Caborca,Heroica Caborca,83600,30.71721935,-112.14734129241305
Portal Carillo Puerto,Guanajuato,Irapuato,Irapuato,36500,20.6746342,-101.3472466
Calle Jesús Terán,Guanajuato,Irapuato,Irapuato,36588,20.6743949,-101.350626
Calle Cedro,Guanajuato,Irapuato,Irapuato,36660,20.6865581,-101.3559477
Avenida Ejército Nacional,Guanajuato,Irapuato,Irapuato,36660,20.6883372,-101.356173
Boulevard Lázaro Cárdenas,Guanajuato,Irapuato,Irapuato,36698,20.6773994,-101.36782103723661
Boulevard Lázaro Cárdenas,Guanajuato,Irapuato,Irapuato,36525,20.672854049999998,-101.37267585676238
Avenida Héroes de Nacozari,Guanajuato,Irapuato,Irapuato,36698,20.6819234,-101.3765095
Calle Guerrero,Guanajuato,Irapuato,Irapuato,36625,20.7151997,-101.3487599
Calzada Cerro Grande,Michoacán,La Piedad,La Piedad de Cabadas,59379,20.3559155,-102.0477223
Calle Narcisos,Michoacán,La Piedad,La Piedad de Cabadas,59379,20.35623755,-102.05651509336406
Boulevard Aeropuerto,Guanajuato,León,León,37547,21.071083450000003,-101.59780980479746
Boulevard Asís,Guanajuato,León,León,37545,21.0856468,-101.6134813
Boulevard Mariano Escobedo,Guanajuato,León,León,37530,21.1029101,-101.6374054
Avenida Bienestar,Sinaloa,Ahome,Los Mochis,81260,25.7723087,-108.9780477
Avenida Tenochtitlan,Sinaloa,Ahome,Los Mochis,81200,25.7808897,-108.9865047
Callejón Juan Escutia,Sinaloa,Ahome,Los Mochis,81280,25.7822899,-108.9864206
Avenida General Álvaro Obregón,Sinaloa,Ahome,Los Mochis,81200,25.7832662,-108.9869875
Avenida Nezahualcóyotl,Sinaloa,Ahome,Los Mochis,81280,25.780339,-108.9942402
Calle Ignacio Allende,Sinaloa,Ahome,Los Mochis,81280,25.7846855,-108.9936528
Calle Santos Degollado,Sinaloa,Ahome,Los Mochis,81200,25.7912614,-108.9879879
Avenida General Álvaro Obregón,Sinaloa,Ahome,Los Mochis,81280,25.7870722,-108.9934524
Avenida General Álvaro Obregón,Sinaloa,Ahome,Los Mochis,81280,25.7871475,-108.9934604
Guillermo Prieto,Sinaloa,Ahome,Los Mochis,81200,25.7891664,-108.9923492
Avenida Andrés García Lavín,Yucatán,Mérida,Mérida,97113,21.036896,-89.6018588
Calle 32,Yucatán,Mérida,Mérida,97302,21.0466112,-89.6094885
Calle 36,Yucatán,Mérida,Mérida,97115,21.0429254,-89.6212851
Calle 45,Yucatán,Mérida,Mérida,97119,21.0203658,-89.62060033191716
Calle 50,Yucatán,Mérida,Mérida,97118,21.0359735,-89.6274975
Calle 5-B,Yucatán,Mérida,Mérida,97115,21.032167,-89.628557
Calle 5-B,Yucatán,Mérida,Mérida,97204,21.03196765,-89.63023614805346
Calle 5-B,Yucatán,Mérida,Mérida,97204,21.032057,-89.6302871
Calle 24,Yucatán,Mérida,Mérida,97305,21.0566079,-89.5982197
Calle 20 A,Yucatán,Mérida,Mérida,97204,21.0337666,-89.6325099593617
Avenida Lázaro Cárdenas,Michoacán,Lázaro Cárdenas,Lázaro Cárdenas,60952,17.971642950000003,-102.20697368442208
Avenida Melchor Ocampo,Michoacán,Lázaro Cárdenas,Lázaro Cárdenas,60956,17.9740519,-102.23389839999999
Avenida Las Truchas,Michoacán,Lázaro Cárdenas,Lázaro Cárdenas,60952,17.970163,-102.1990726
Boulevard Costero,Michoacán,Lázaro Cárdenas,Lázaro Cárdenas,,17.9769971,-102.3232263
Avenida Bahía de la Ventosa,Oaxaca,Salina Cruz,Salina Cruz,70680,16.1861267,-95.1841275
Calle de Cristóbal Colón,Oaxaca,Oaxaca de Juárez,Oaxaca,68115,17.0568641,-96.7144248
Avenida Manuel Ávila Camacho,Oaxaca,Salina Cruz,Salina Cruz,70600,16.1755363,-95.1924811
Calle de Niños Héroes,Oaxaca,Oaxaca de Juárez,Oaxaca,68080,17.0646651,-96.7161223
Avenida de José María Morelos,Oaxaca,Oaxaca de Juárez,Oaxaca,68000,17.0612681,-96.7167771
Calle Pacífico,Oaxaca,Salina Cruz,Salina Cruz,70600,16.1726842,-95.1910177
Calle del Refugio,Oaxaca,Oaxaca de Juárez,Oaxaca,68080,17.0635828,-96.7168227
Avenida Miguel Hidalgo,Oaxaca,Oaxaca de Juárez,Oaxaca,68000,17.0592864,-96.7169742
Avenida Tampico,Oaxaca,Salina Cruz,Salina Cruz,70600,16.1813178,-95.1961586
Calzada de la República,Oaxaca,Oaxaca de Juárez,Oaxaca,68000,17.062897,-96.7171229
Carretera Pachuca - Tempoal,Hidalgo,Mineral del Monte,,42130,20.1398278,-98.6909764
Calle Eustolio Becerra,Hidalgo,Ajacuba,,,20.0927758,-99.12183285341786
Calle La Paz,Hidalgo,Mineral del Monte,,42130,20.1338726,-98.6773351
Calle Venustiano Carranza,Hidalgo,Ajacuba,,,20.08882095,-99.12317434038545
Calle Francisco I. Madero,Hidalgo,Ajacuba,,,20.0925906,-99.123785055219
Calle Francisco I. Madero,Hidalgo,Mineral del Monte,,42130,20.142394,-98.6740301
Avenida Juárez,Hidalgo,Mineral del Monte,,42130,20.1351651,-98.6738938
Avenida Miguel Hidalgo,Hidalgo,Mineral del Monte,,42130,20.1399673,-98.672411
Avenida Juárez,Hidalgo,Mineral del Monte,,42130,20.1353855,-98.6729229
16 de Enero,Hidalgo,Mineral del Monte,,42130,20.1399932,-98.6718366
Calzada al Sumidero,Chiapas,Tuxtla Gutiérrez,Tuxtla Gutiérrez,29010,16.7749326,-93.1017533
Calle 13 Oriente,Chiapas,Tuxtla Gutiérrez,Tuxtla Gutiérrez,29019,16.7442702,-93.1066625
Calle 1a Oriente Sur,Chiapas,Tuxtla Gutiérrez,Tuxtla Gutiérrez,29066,16.7461823,-93.1164621
Avenida 9a Sur Oriente,Chiapas,Tuxtla Gutiérrez,Tuxtla Gutiérrez,29019,16.741466,-93.100137
Calzada Samuel León Brindis,Chiapas,Tuxtla Gutiérrez,Tuxtla Gutiérrez,29019,16.7426523,-93.1015046
Calzada del Trabajo,Chiapas,Tuxtla Gutiérrez,Tuxtla Gutiérrez,29077,16.7324907,-93.0946601
Calle 1a Poniente Sur,Chiapas,Tuxtla Gutiérrez,Tuxtla Gutiérrez,29066,16.7481868,-93.117932
Calle 1a Poniente Sur,Chiapas,Tuxtla Gutiérrez,Tuxtla Gutiérrez,29066,16.7483733,-93.1178926
Avenida 5a Sur Oriente,Chiapas,Tuxtla Gutiérrez,Tuxtla Gutiérrez,29019,16.7492904,-93.1164495
Calle 1a Oriente Sur,Chiapas,Tuxtla Gutiérrez,Tuxtla Gutiérrez,29066,16.74941675,-93.11623952290157
Boulevard Autopista México-Puebla,Puebla,Municipio de Puebla,Puebla,72019,19.0858405,-98.1895875
Calle 4 Oriente,Puebla,Municipio de Puebla,Puebla,72000,19.0491131,-98.2036471
Avenida 14 Poniente,Puebla,Municipio de Puebla,Puebla,72000,19.0509752,-98.19727820375925
Carretera Puebla - Belem,Puebla,Municipio de Puebla,Puebla,72019,19.0864974,-98.1876767
Calle 4 Oriente,Puebla,Municipio de Puebla,Puebla,72000,19.0482294,-98.2017642
Calle 4 Oriente,Puebla,Municipio de Puebla,Puebla,72000,19.0479376,-98.2010238
Calle 7 Norte,Puebla,Municipio de Puebla,Puebla,72000,19.0470384,-98.2028895
Avenida 5 de Mayo,Puebla,Municipio de Puebla,Puebla,72000,19.0499588,-98.1952467
Avenida 3 Poniente,Puebla,Municipio de Puebla,Puebla,72000,19.0471797,-98.2057033
Calle 7 Sur,Puebla,Municipio de Puebla,Puebla,72000,19.0464592,-98.2031104
Calle Allende,Querétaro,Ezequiel Montes,,,20.7401419,-99.9393386
Calle Independencia,Querétaro,Ezequiel Montes,,,20.7405401,-99.9398857
Calle Ezequiel Montes,Querétaro,Ezequiel Montes,,76280,20.7385635,-99.9403149
Andador Arturo Guerrero Ortiz,Querétaro,Ezequiel Montes,,,20.7412394,-99.9410673
Calle Independencia,Querétaro,Ezequiel Montes,,76280,20.7378551,-99.9395226
Calle P. Díaz,Querétaro,Ezequiel Montes,,76280,20.7404962,-99.9415883
Calle Ezequiel Montes,Querétaro,Ezequiel Montes,,76280,20.7376605,-99.9404369
Calle Narciso Mendoza,Querétaro,Ezequiel Montes,,76280,20.7371757,-99.9392306
Calle La Quinta,Querétaro,Ezequiel Montes,,76280,20.7415651,-99.9423485
Calle La Corregidora,Querétaro,Ezequiel Montes,,,20.7434754,-99.9419762
Callejón del Mezquite,Guanajuato,Municipio de Guanajuato,Guanajuato,36030,21.0187991,-101.2677653
Privada Nejayote,Guanajuato,Municipio de Guanajuato,Guanajuato,36086,21.0160962,-101.26667
Avenida Banquetta Alta,Guanajuato,Municipio de Guanajuato,Guanajuato,36030,21.0194892,-101.2621581
Miguel Hidalgo,Guanajuato,Municipio de Guanajuato,Guanajuato,36000,21.0199885,-101.2610587
Callejón del Minero,Guanajuato,Municipio de Guanajuato,Guanajuato,36060,21.0283238,-101.2597252
Euquerio Guerrero,Guanajuato,Municipio de Guanajuato,,36053,21.0090666,-101.2731962
Calle San Javier,Guanajuato,Municipio de Guanajuato,Guanajuato,36020,21.0290284,-101.2589363
Avenida Benito Juárez,Guanajuato,Municipio de Guanajuato,Guanajuato,36089,21.0183621,-101.258602
Avenida Benito Juárez,Guanajuato,Municipio de Guanajuato,Guanajuato,36000,21.0182847,-101.2584985
Panorámica Pípila,Guanajuato,Municipio de Guanajuato,Guanajuato,36020,21.0302864,-101.258841875
Calzada al Sumidero,Chiapas,Tuxtla Gutiérrez,Tuxtla Gutiérrez,29010,16.7749326,-93.1017533
Avenida 5a Norte Poniente,Chiapas,Tuxtla Gutiérrez,Tuxtla Gutiérrez,29060,16.7590545,-93.1215798
Avenida 5a Norte Poniente,Chiapas,Tuxtla Gutiérrez,Tuxtla Gutiérrez,29060,16.7584345,-93.1178193
Calle 16a Poniente Norte,Chiapas,Tuxtla Gutiérrez,Tuxtla Gutiérrez,29030,16.7606515,-93.1309604
Avenida 3a. Norte Poniente,Chiapas,Tuxtla Gutiérrez,Tuxtla Gutiérrez,29060,16.7563053,-93.1161703
Avenida 3a. Norte Oriente,Chiapas,Tuxtla Gutiérrez,Tuxtla Gutiérrez,29019,16.7561855,-93.115357
Avenida 3a. Norte Oriente,Chiapas,Tuxtla Gutiérrez,Tuxtla Gutiérrez,29019,16.7559421,-93.1152294
Calle 8a Poniente Norte,Chiapas,Tuxtla Gutiérrez,Tuxtla Gutiérrez,29060,16.7553742,-93.1228724
Calle 6a Poniente Norte,Chiapas,Tuxtla Gutiérrez,Tuxtla Gutiérrez,29060,16.7551703,-93.1209703
Avenida 3a. Norte Oriente,Chiapas,Tuxtla Gutiérrez,Tuxtla Gutiérrez,29019,16.7556938,-93.1139084
Calle Cuauhtémoc,Querétaro,San Juan del Río,San Juan del Río,76803,20.3904314,-99.9989104
Avenida Juárez,Querétaro,San Juan del Río,San Juan del Río,76803,20.3869214,-99.99658304530558
Avenida Juárez,Querétaro,San Juan del Río,San Juan del Río,76803,20.3868655,-99.9965913
Andador Mariano Jiménez,Querétaro,San Juan del Río,San Juan del Río,76803,20.3861088,-99.9965601
Andador Mariano Jiménez,Querétaro,San Juan del Río,San Juan del Río,76803,20.3858284,-99.99672350440227
De La Vina,Querétaro,San Juan del Río,San Juan del Río,76803,20.3854481,-99.99677254946533
Avenida Miguel Hidalgo y Costilla,Querétaro,San Juan del Río,San Juan del Río,76803,20.38538685,-99.99715751842913
Carretera Panamericana a Querétaro,Querétaro,San Juan del Río,San Juan del Río,76803,20.3835791,-100.0122748
Avenida Universidad,Querétaro,San Juan del Río,San Juan del Río,76805,20.38512745,-99.93779355829707
Calle Paseo de las Estrellas,Querétaro,San Juan del Río,San Juan del Río,76805,20.38490625,-99.93495051710012
Calle Antonio Otahegui,San Luis Potosí,Municipio de San Luis Potosí,San Luis Potosí,78000,22.1537892,-100.9718502
Calle de los Bravo,San Luis Potosí,Municipio de San Luis Potosí,San Luis Potosí,78000,22.15242435,-100.97379867960123
Calle Juan Sarabia,San Luis Potosí,Municipio de San Luis Potosí,San Luis Potosí,78000,22.152236600000002,-100.97372793979994
Avenida Universidad,San Luis Potosí,Municipio de San Luis Potosí,San Luis Potosí,78320,22.1514744,-100.9629468
Eje Vial Ponciano Arriaga,San Luis Potosí,Municipio de San Luis Potosí,San Luis Potosí,78038,22.1604369,-100.9743088
Calle José María Morelos y Pavón,San Luis Potosí,Municipio de San Luis Potosí,San Luis Potosí,78000,22.151434549999998,-100.97500973173243
Calle 5 de Mayo,San Luis Potosí,Municipio de San Luis Potosí,San Luis Potosí,78000,22.15105405,-100.97685560624964
Calle Hermenegildo Galeana,San Luis Potosí,Municipio de San Luis Potosí,San Luis Potosí,78000,22.14922555,-100.97607523585668
Calle Ignacio Aldama,San Luis Potosí,Municipio de San Luis Potosí,San Luis Potosí,78000,22.150235,-100.977101
Avenida Venustiano Carranza,San Luis Potosí,Municipio de San Luis Potosí,San Luis Potosí,78230,22.1514473,-100.9787565536453
Avenida Farallón del Obispo,Guerrero,Acapulco de Juárez,Acapulco,39300,16.8643678,-99.8691547
Calle Doctor Ignacio Chávez,Guerrero,Acapulco de Juárez,Acapulco,39300,16.863938,-99.8770577
Calle Niños Héroes,Querétaro,Tequisquiapan,,76776,20.5203578,-99.8950824
Calle Juárez Poniente,Querétaro,Tequisquiapan,,76776,20.5228358,-99.8920285
Calle Guillermo Prieto,Querétaro,Tequisquiapan,,76776,20.5235771,-99.8927061
Calle Guillermo Prieto,Querétaro,Tequisquiapan,,76776,20.5235482,-99.8924734
Calle Francisco I. Madero,Querétaro,Tequisquiapan,,76776,20.5243949,-99.8928707
Calle Moctezuma,Querétaro,Tequisquiapan,,76776,20.5244236,-99.8925468
Calle Potrero Salitrillo,Querétaro,Tequisquiapan,,76750,20.526431700000003,-99.89713503952646
Calle Heróico Colegio Militar,Querétaro,Tequisquiapan,,76776,20.5258517,-99.89445
Calle Morelos Norte,Querétaro,Tequisquiapan,,76776,20.5240933,-99.8916199
Calle Heróico Colegio Militar,Querétaro,Tequisquiapan,,76776,20.5268405,-99.8922711
Calle Morelos Oriente,Tlaxcala,Huamantla,,98181,19.3149911,-97.9196436
Avenida Zaragoza Oriente,Tlaxcala,Huamantla,,90501,19.3123221,-97.9197316
Avenida Zaragoza Oriente,Tlaxcala,Huamantla,,90501,19.3123221,-97.9199578
Avenida Juárez Norte,Tlaxcala,Huamantla,,98181,19.3158786,-97.9223669
Calle Parque Juárez,Tlaxcala,Huamantla,,90501,19.3138701,-97.9224856
Carretera Huamantla-Puebla,Tlaxcala,Huamantla,,90505,19.2864964,-97.919138
Vía Morelos,Estado de México,,Ecatepec de Morelos,55080,19.5836979,-99.0411039
Vía Morelos,Estado de México,,Ecatepec de Morelos,55090,19.5860017,-99.0409155
Calle de los Insurgentes,Estado de México,Toluca,,50265,19.2668114,-99.6909141
Calle Alfredo Del Mazo,Estado de México,Zinacantepec,,51355,19.2944748,-99.72402595673864
Calle Emiliano Zapata,Estado de México,Zinacantepec,,51355,19.294482600000002,-99.72578862611894
Boulevard Licenciado Adolfo López Mateos,Estado de México,Zinacantepec,,51355,19.29466885,-99.72644974344946
Calzada al Pacífico,Estado de México,Toluca,,50265,19.2562142,-99.689273
Calzada Pemex Del Pacífico,Estado de México,Toluca,,50264,19.256325,-99.6842281
Circuito de las Américas,Estado de México,,Ecatepec de Morelos,55070,19.582875450000003,-99.02481735732677
Ciclovía Miguel Hidalgo,Estado de México,Toluca,Toluca,50000,19.2891459,-99.6620666
Calle Libramiento Sur Oriente,Chiapas,Tuxtla Gutiérrez,Tuxtla Gutiérrez,29077,16.7351177,-93.0903382
Boulevard Ángel Albino Corzo,Chiapas,Tuxtla Gutiérrez,Tuxtla Gutiérrez,29000,16.7492707,-93.0910161
Privada Doctor Rodolfo Figueroa,Chiapas,Tuxtla Gutiérrez,Tuxtla Gutiérrez,29077,16.7497864,-93.0921801
Calzada del Trabajo,Chiapas,Tuxtla Gutiérrez,Tuxtla Gutiérrez,29077,16.7324907,-93.0946601
Avenida 9a Sur Oriente,Chiapas,Tuxtla Gutiérrez,Tuxtla Gutiérrez,29019,16.741466,-93.100137
Calzada Samuel León Brindis,Chiapas,Tuxtla Gutiérrez,Tuxtla Gutiérrez,29019,16.7426523,-93.1015046
Avenida 2a Norte Oriente,Chiapas,Tuxtla Gutiérrez,Tuxtla Gutiérrez,29000,16.7533238,-93.0999029
Boulevard Presa Chicoasén,Chiapas,Tuxtla Gutiérrez,Tuxtla Gutiérrez,29044,16.7566264,-93.088697
Boulevard Ángel Albino Corzo,Chiapas,Tuxtla Gutiérrez,Tuxtla Gutiérrez,29077,16.7460205,-93.0752132
Calle 13 Oriente,Chiapas,Tuxtla Gutiérrez,Tuxtla Gutiérrez,29019,16.7442702,-93.1066625
Vía Morelos,Estado de México,,Ecatepec de Morelos,55080,19.5836979,-99.0411039
Vía Morelos,Estado de México,,Ecatepec de Morelos,55090,19.5860017,-99.0409155
Circuito de las Américas,Estado de México,,Ecatepec de Morelos,55070,19.582875450000003,-99.02481735732677
Carretera Vía José López Portillo,Estado de México,,Ecatepec de Morelos,55016,19.6188534,-99.0670146
Privada Chautepec,Estado de México,,Ecatepec de Morelos,55107,19.5568902,-99.0187038
Calle Sur 4,Estado de México,,Ecatepec de Morelos,55130,19.5329322,-99.0468087
Avenida Adolfo López Mateos,Estado de México,,Ecatepec de Morelos,55490,19.53301525,-99.04673899310743
Calle Chichimecas,Estado de México,,Ecatepec de Morelos,55120,19.536426300000002,-99.02739678192648
Andador Profesor Leonides García,Tabasco,Centro,Villahermosa,86035,17.991019350000002,-92.96114497755
Privada Villas del Sol,Tabasco,Centro,Villahermosa,86035,17.99436385,-92.95242805733116
Paseo Usumacinta,Tabasco,Centro,Villahermosa,86035,18.0012215,-92.9563491
Periférico Carlos Pellicer Cámara,Tabasco,Centro,Villahermosa,86035,18.0024297,-92.9578527
Periférico Carlos Pellicer Cámara,Tabasco,Centro,Villahermosa,86035,18.0024084,-92.9569192
Calle Paseo de la Choca,Tabasco,Centro,Villahermosa,86035,18.0029031,-92.955053
Avenida Paseo Tabasco,Tabasco,Centro,Villahermosa,86035,18.0016296,-92.94633431333827
Boulevard Adolfo Ruiz Cortines,Tabasco,Centro,Villahermosa,86050,17.996110350000002,-92.94100800358243
Calle Benito Juárez García,Tabasco,Centro,Villahermosa,86050,17.995157,-92.94010468014244
Cerrada Cencali,Tabasco,Centro,Villahermosa,86050,17.994158,-92.93895829288306
Avenida Xalapa,Veracruz,Municipio de Veracruz,Veracruz,91750,19.1789704,-96.1366036
Calle Marcelino Tuero Molina,Veracruz,Municipio de Veracruz,Veracruz,91910,19.1792408,-96.1343537
Avenida Xalapa,Veracruz,Municipio de Veracruz,Veracruz,91750,19.1781561,-96.139331
Avenida Salvador Díaz Mirón,Veracruz,Municipio de Veracruz,Veracruz,91910,19.1796629,-96.134414
Calle Cuauhtémoc,Veracruz,Municipio de Veracruz,Veracruz,91750,19.1776792,-96.1396861
Lafragua,Veracruz,Municipio de Veracruz,Veracruz,91910,19.178922,-96.1329361
Lafragua,Veracruz,Municipio de Veracruz,Veracruz,91910,19.1786391,-96.1328774
Calle Orizaba,Veracruz,Municipio de Veracruz,Veracruz,91910,19.1781205,-96.1328218
Avenida Miguel Ángel de Quevedo,Veracruz,Municipio de Veracruz,Veracruz,91750,19.1778008,-96.1413425
Calle 22 de Marzo,Veracruz,Municipio de Veracruz,Veracruz,91910,19.1785327,-96.1319464
Boulevard López Mateos,Zacatecas,Municipio de Zacatecas,Zacatecas,98000,22.76900505,-102.57087816631679
Boulevard López Mateos,Zacatecas,Municipio de Zacatecas,Zacatecas,98000,22.76650485,-102.56423002605376
Avenida Ignacio Rayón,Zacatecas,Municipio de Zacatecas,Zacatecas,98050,22.7687403,-102.57568
Avenida Ignacio Rayón,Zacatecas,Municipio de Zacatecas,Zacatecas,98050,22.76877785,-102.57575105301606
Avenida Hidalgo,Zacatecas,Municipio de Zacatecas,Zacatecas,98000,22.7751576,-102.5730585
Avenida Hidalgo,Zacatecas,Municipio de Zacatecas,Zacatecas,98000,22.7776144,-102.5716243
Calle Samuel Castañon,Zacatecas,Municipio de Zacatecas,Zacatecas,98050,22.77134935,-102.58342134182737
Calle Julián Aguirre,Zacatecas,Municipio de Zacatecas,Zacatecas,98050,22.77242005,-102.58324030352635
Calle Julián Aguirre,Zacatecas,Municipio de Zacatecas,Zacatecas,98050,22.7723754,-102.5834771
Calle Sancho Panza,Chihuahua,Juárez,Ciudad Juárez,32001,31.7380034,-106.4809877
Avenida 16 de Septiembre,Chihuahua,Juárez,Ciudad Juárez,32001,31.7387022,-106.47832829852712
Avenida Lerdo,Chihuahua,Juárez,Ciudad Juárez,32001,31.738581,-106.4813977
Avenida Lerdo,Chihuahua,Juárez,Ciudad Juárez,32001,31.7386048,-106.4816976
Calle Vicente Guerrero,Chihuahua,Juárez,Ciudad Juárez,32001,31.737463849999997,-106.48437468200424
Calle Ramón Corona,Chihuahua,Juárez,Ciudad Juárez,32001,31.73948575,-106.48068804684844
Avenida Francisco Villa,Chihuahua,Juárez,Ciudad Juárez,32001,31.739297649999997,-106.48353197037258
Avenida Lerdo,Chihuahua,Juárez,Ciudad Juárez,32001,31.73984575,-106.48188209631125
Avenida Francisco Villa,Chihuahua,Juárez,Ciudad Juárez,32001,31.7398032,-106.4830994577488
Avenida Benito Juárez,Chihuahua,Juárez,Ciudad Juárez,32001,31.7413138,-106.48474442612022
Boulevard Benito Juárez,Baja California,Municipio de Mexicali,Mexicali,21270,32.640753450000005,-115.4509701096624
Boulevard Benito Juárez,Baja California,Municipio de Mexicali,Mexicali,21279,32.6408023,-115.4509368
Calle De la Industria,Baja California,Municipio de Mexicali,Mexicali,21030,32.64432675,-115.46753286602262
Calle De la Industria,Baja California,Municipio de Mexicali,Mexicali,21030,32.6445265,-115.4676037
Boulevard Benito Juárez,Baja California,Municipio de Mexicali,Mexicali,21280,32.6383585,-115.4492282
Boulevard Benito Juárez,Baja California,Municipio de Mexicali,Mexicali,21270,32.6432813,-115.45164790936713
Boulevard Benito Juárez,Baja California,Municipio de Mexicali,Mexicali,21279,32.6430609,-115.4514196
Avenida De la Libertad,Baja California,Municipio de Mexicali,Mexicali,21000,32.6429003,-115.4702591
Boulevard Benito Juárez,Baja California,Municipio de Mexicali,Mexicali,21270,32.638209599999996,-115.44827027314926
Boulevard Benito Juárez,Baja California,Municipio de Mexicali,Mexicali,21280,32.637717,-115.4481552
Avenida Emiliano Carranza,Coahuila,Piedras Negras,Piedras Negras,26085,28.6960539,-100.5301087
Calle San Luís,Coahuila,Piedras Negras,Piedras Negras,26085,28.7004213,-100.5282894
Avenida Tecnológico,Coahuila,Piedras Negras,Piedras Negras,26080,28.6844399,-100.5578508
Avenida Emiliano Carranza,Coahuila,Piedras Negras,Piedras Negras,26085,28.6884835,-100.5417919
East Main Street,Texas,Maverick County,Eagle Pass,78852,28.709119299999998,-100.49084705
East Main Street,Texas,Maverick County,Eagle Pass,78852,28.70906665,-100.48598693690721
El Indio Highway,Texas,Maverick County,Eagle Pass,78852,28.691784499999997,-100.48206727436015
East Main Street,Texas,Maverick County,Eagle Pass,78852,28.7095488,-100.4787275
East Main Street,Texas,Maverick County,Eagle Pass,78852,28.709342200000002,-100.4785170798109
North Veterans Boulevard,Texas,Maverick County,Eagle Pass,78852,28.71649815,-100.47726492550696
Calle B,Baja California,Municipio de Tecate,Tecate,21447,32.56237955,-116.65173020839848
Carretera Libre Tijuana-Tecate,Baja California,Municipio de Tecate,Tecate,21447,32.5621189,-116.65229656410276
Calle Alberto V. Aldrete,Baja California,Municipio de Tecate,Tecate,21410,32.5734051,-116.6346361
Callejón Reforma,Baja California,Municipio de Tecate,Tecate,21448,32.573082299999996,-116.63851379562814
Calle Presidente Lázaro Cárdenas,Baja California,Municipio de Tecate,Tecate,21470,32.572702,-116.6269048
Avenida Benito Juárez,Baja California,Municipio de Tecate,Tecate,21420,32.5735658,-116.6250981
Avenida México,Baja California,Municipio de Tecate,Tecate,21420,32.5762351,-116.6198082
Privada Río Usumacinta,Baja California,Municipio de Tecate,Tecate,21420,32.57562275,-116.61947644608188
Carretera Libre Tecate-Tijuana,Baja California,Municipio de Tecate,,21440,32.5479478,-116.6739665
Boulevard Gustavo Díaz Ordaz,Baja California,Municipio de Tijuana,Tijuana,22480,32.506520050000006,-116.98018828326812
Avenida De Las Joyas,Baja California,Municipio de Tijuana,Tijuana,22650,32.487706200000005,-116.94772202625549
Calle Paseo Del Río,Baja California,Municipio de Tijuana,Tijuana,22128,32.490216399999994,-116.93104634023966
Boulevard Manuel J. Clouthier,Baja California,Municipio de Tijuana,Tijuana,22128,32.49217145,-116.93551395497549
Avenida Paseo del Guaycura,Baja California,Municipio de Tijuana,Tijuana,22570,32.4888531,-116.92505496352766
Boulevard de los Insurgentes,Baja California,Municipio de Tijuana,Tijuana,22476,32.49475645,-116.9301305501373
Boulevard Gustavo Díaz Ordaz,Baja California,Municipio de Tijuana,Tijuana,22480,32.506520050000006,-116.98018828326812
Boulevard Gustavo Díaz Ordaz,Baja California,Municipio de Tijuana,Tijuana,22015,32.5088028,-116.98312133968346
Avenida de las Gardenias,Baja California,Municipio de Tijuana,Tijuana,22105,32.509275349999996,-116.9858939579556
Boulevard Gustavo Díaz Ordaz,Baja California,Municipio de Tijuana,Tijuana,22105,32.509428799999995,-116.98839230885488
Calle Guillermo Prieto,Ciudad de México,,Ciudad de México,15850,19.4061561,-99.11921265562948
Avenida Santiago,Ciudad de México,,Ciudad de México,08220,19.3912317,-99.1314781
Calle Aragón,Ciudad de México,,Ciudad de México,03400,19.40183595,-99.1373225368107
Calzada San Antonio Abad,Ciudad de México,,Ciudad de México,06880,19.4075155,-99.1361545
Calzada de la Viga,Ciudad de México,,Ciudad de México,06870,19.4130001,-99.12888257782987
Calzada San Antonio Abad,Ciudad de México,,Ciudad de México,06800,19.4101721,-99.1357027
Calle Luis Gonzaga Inclán,Ciudad de México,,Ciudad de México,03520,19.3887152,-99.1366748
Calzada San Antonio Abad,Ciudad de México,,Ciudad de México,06800,19.41433735,-99.13529213578458
Calle Ahorro Postal,Ciudad de México,,Ciudad de México,03410,19.388164,-99.139266
Calle 5 de Febrero,Ciudad de México,,Ciudad de México,06800,19.4144918,-99.1364875
Fray Mariano Navarro,Jalisco,Atotonilco el Alto,,47750,20.54960425,-102.50692625062804
DR. CARLOS CANSECO GONZALEZ,Jalisco,,Tepatitlán de Morelos,47635,20.8407201,-102.744162
Santos Romo,Jalisco,,Tepatitlán de Morelos,47660,20.8148712,-102.758343
Santos Romo,Jalisco,,Tepatitlán de Morelos,47660,20.8148082,-102.7583083709527
Hidalgo,Jalisco,,Tepatitlán de Morelos,47690,20.8145872,-102.7584929
Pedro Medina,Jalisco,,Tepatitlán de Morelos,47660,20.8139725,-102.7577868
Hidalgo,Jalisco,,Tepatitlán de Morelos,47690,20.81462135,-102.75870078083912
Pedro Medina,Jalisco,,Tepatitlán de Morelos,47600,20.8136747,-102.7578615
Lerdo de Tejada,Jalisco,,Tepatitlán de Morelos,47690,20.8162326,-102.7652803
Matamoros,Jalisco,,Tepatitlán de Morelos,47690,20.8075131,-102.7635135
Avenida Eugenio Garza Sada,Nuevo León,Monterrey,Monterrey,64780,25.6366353,-100.284059
Avenida Miguel Alemán,Nuevo León,Guadalupe,Guadalupe,67138,25.6926007,-100.242525
Purísima,Nuevo León,Guadalupe,Guadalupe,67138,25.6945451,-100.24154992187864
Avenida Miguel Alemán,Nuevo León,Guadalupe,Guadalupe,67130,25.6945535,-100.2415426
Avenida Miguel Alemán Valdés,Nuevo León,Guadalupe,Guadalupe,64590,25.6887612,-100.2594308
Avenida Revolución,Nuevo León,Monterrey,Monterrey,64860,25.6278487,-100.2730292
Avenida Miguel Alemán,Nuevo León,San Nicolás de los Garza,San Nicolás de los Garza,66478,25.7322554,-100.21057589347281
Xilofactos,Nuevo León,Monterrey,Monterrey,64190,25.72066875,-100.33773299103618
Avenida Rodrigo Gómez,Nuevo León,Monterrey,Monterrey,64270,25.7239937,-100.342384
Avenida Fidel Velázquez,Nuevo León,Monterrey,Monterrey,64190,25.7206368,-100.33768
Calle José María Morelos y Pavon,Puebla,Atlixco,,74260,18.9101418,-98.4347743
Avenida Libertad,Puebla,Atlixco,,74260,18.9105729,-98.4342079
Calle 4 Oriente,Puebla,Atlixco,,74260,18.9102541,-98.4332005
Avenida Libertad,Puebla,Atlixco,,74260,18.9108328,-98.4337727
Avenida Libertad,Puebla,Atlixco,,74260,18.911012,-98.4340967
Calle 2 Norte,Puebla,Atlixco,,74260,18.9099618,-98.4327943
Avenida Independencia,Puebla,Atlixco,,74260,18.9085731,-98.4350648
Avenida Independencia,Puebla,Atlixco,,74260,18.9083161,-98.4347638
Calle 2 Poniente,Puebla,Atlixco,,74260,18.9110864,-98.4362346
Avenida Nicolás Bravo Rueda,Puebla,Atlixco,,74260,18.9078109,-98.4318666
Avenida Diego Rivera,Nuevo León,San Pedro Garza García,,66269,25.649167,-100.33381652082106
Avenida Diego Rivera,Nuevo León,San Pedro Garza García,,66269,25.6492658,-100.333967
Avenida Diego Rivera,Nuevo León,San Pedro Garza García,,66260,25.6498464,-100.33405
Avenida Diego Rivera,Nuevo León,San Pedro Garza García,,66200,25.6503699,-100.3348448
Avenida Lázaro Cárdenas,Nuevo León,San Pedro Garza García,,66260,25.6503523,-100.3329254
Avenida Lázaro Cárdenas,Nuevo León,San Pedro Garza García,,66260,25.6515576,-100.3352248
Avenida Lázaro Cárdenas,Nuevo León,San Pedro Garza García,,66269,25.65087875,-100.33137963678158
Avenida Lázaro Cárdenas,Nuevo León,San Pedro Garza García,,66260,25.650856,-100.3313196
Avenida Lázaro Cárdenas,Nuevo León,San Pedro Garza García,,66269,25.6474738,-100.3283939
Avenida Doctor Atl,Nuevo León,San Pedro Garza García,,66269,25.64759155,-100.32832756315028
Calle Matamoros,Jalisco,San Pedro Tlaquepaque,Tlaquepaque,45500,20.636063,-103.3126511
Calle Plan de Valladolid,Jalisco,San Pedro Tlaquepaque,Tlaquepaque,45593,20.617543400000002,-103.32120098953416
Calle Florida,Jalisco,San Pedro Tlaquepaque,Tlaquepaque,44870,20.6428533,-103.3166281
DR. CARLOS CANSECO GONZALEZ,Jalisco,,Tepatitlán de Morelos,47635,20.8407201,-102.744162
Calle Cancún,Jalisco,San Pedro Tlaquepaque,Tlaquepaque,45590,20.6113088,-103.32044441915608
Santos Romo,Jalisco,,Tepatitlán de Morelos,47660,20.8148712,-102.758343
Santos Romo,Jalisco,,Tepatitlán de Morelos,47660,20.8148082,-102.7583083709527
Pedro Medina,Jalisco,,Tepatitlán de Morelos,47660,20.8139725,-102.7577868
Hidalgo,Jalisco,,Tepatitlán de Morelos,47690,20.8145872,-102.7584929
Pedro Medina,Jalisco,,Tepatitlán de Morelos,47600,20.8136747,-102.7578615
Luis E. Erro,Puebla,San Andrés Cholula,,72840,19.0312078,-98.31650342357142
Luis E. Erro,Puebla,San Andrés Cholula,,72840,19.031459650000002,-98.31729101499201
Calle Annie Jump Cannon,Puebla,San Andrés Cholula,,72840,19.031321300000002,-98.31736115000001
Calle Guadalupe Victoria,Puebla,San Andrés Cholula,,72840,19.02953975,-98.31929731754016
Coclovía 9 Sur,Puebla,San Pedro Cholula,,72760,19.066207900000002,-98.31252693293177
Coclovía 9 Sur,Puebla,San Pedro Cholula,,72760,19.0661968,-98.3125029
Calle 4 Poniente,Puebla,San Pedro Cholula,,72860,19.0660258,-98.3116754
Calle 7 Norte,Puebla,San Pedro Cholula,,72860,19.0657595,-98.3106184
Calle 3 Poniente,Puebla,San Pedro Cholula,,72760,19.0631834,-98.3123819
Calle 3 Norte,Puebla,San Pedro Cholula,,72860,19.0637896,-98.30783
Calle Coronel Garduño,Morelos,Cuautla,Cuautla,62740,18.8107465,-98.9560945
Ciudad Victoria,Nuevo León,Monterrey,Monterrey,64320,25.7171893,-100.350007
Zacatepec,Nuevo León,Monterrey,Monterrey,64180,25.7237507,-100.343285
Avenida Rodrigo Gómez,Nuevo León,Monterrey,Monterrey,64270,25.7239937,-100.342384
Calle Ayuntamiento de 1829,Morelos,Cuautla,Cuautla,62740,18.8151977,-98.9517233
Calle Ejército Americano,Morelos,Cuautla,Cuautla,62740,18.8119708,-98.9513926
Calle Mariano Antonio y Máximo Bravo,Morelos,Cuautla,Cuautla,62740,18.8102422,-98.9516824
Xilofactos,Nuevo León,Monterrey,Monterrey,64190,25.72066875,-100.33773299103618
Avenida Fidel Velázquez,Nuevo León,Monterrey,Monterrey,64190,25.7206368,-100.33768
Avenida Miguel Hidalgo,Morelos,Cuernavaca,,62220,18.9697528,-99.2205871
V. Carranza,Puebla,San Andrés Cholula,,72450,19.0206891,-98.2476075
Boulevard del Niño Poblano,Puebla,Municipio de Puebla,Puebla,72176,19.0374286,-98.2451385
Boulevard Vía Atlixcáyotl,Puebla,San Andrés Cholula,,72190,19.0274443,-98.236116
Boulevard Vía Atlixcáyotl,Puebla,San Andrés Cholula,,72820,19.0153152,-98.25263516824714
Calle Guadalupe Victoria,Puebla,San Andrés Cholula,,72840,19.02953975,-98.31929731754016
Luis E. Erro,Puebla,San Andrés Cholula,,72840,19.0312078,-98.31650342357142
Calle Annie Jump Cannon,Puebla,San Andrés Cholula,,72840,19.031321300000002,-98.31736115000001
Luis E. Erro,Puebla,San Andrés Cholula,,72840,19.031459650000002,-98.31729101499201
Boulevard del Niño Poblano,Puebla,San Andrés Cholula,,72453,19.027344,-98.2297627
Calle Osa Mayor,Puebla,Municipio de Puebla,Puebla,72190,19.0329101,-98.2302096
Calle Popocatépetl,Ciudad de México,,Ciudad de México,06100,19.4155965,-99.16589868022578
Avenida Chapultepec,Ciudad de México,,Ciudad de México,06700,19.4230415,-99.1643572
Calle Liverpool,Ciudad de México,,Ciudad de México,06600,19.4231414,-99.166929
Calle Liverpool,Ciudad de México,,Ciudad de México,06600,19.42389895,-99.16468356499999
Calle Amberes,Ciudad de México,,Ciudad de México,06600,19.42395275,-99.16409553128051
Calle Orizaba,Ciudad de México,,Ciudad de México,06700,19.419243799999997,-99.16023742365962
Calle Liverpool,Ciudad de México,,Ciudad de México,06600,19.42425355,-99.16507358862965
Calle Amberes,Ciudad de México,,Ciudad de México,06600,19.4246138,-99.1645787
Calle Londres,Ciudad de México,,Ciudad de México,06600,19.42491155,-99.16411211124225
Avenida Álvaro Obregón,Ciudad de México,,Ciudad de México,06700,19.4181499,-99.159054
Avenida de la Nieve,Baja California,Municipio de Tijuana,,22504,32.5312222,-117.12279159108695
Estacionamiento Pabellon.,Baja California,Municipio de Playas de Rosarito,Rosarito,22703,32.375437250000004,-117.06074574392599
Avenida Paseo a Playas de Tijuana,Baja California,Municipio de Tijuana,,22506,32.499919250000005,-117.12102139999999
Calle Paseo Las Flores,Baja California,Municipio de Playas de Rosarito,Rosarito,22703,32.36286525,-117.05059343278819
Calle General Guadalupe Victoria,Baja California,Municipio de Playas de Rosarito,Rosarito,22715,32.3609681,-117.0630047
West San Ysidro Boulevard,California,San Diego County,San Diego,92173,32.55946645,-117.06318302701601
Seacoast Drive,California,San Diego County,,91932,32.581377950000004,-117.13220873755515
West San Ysidro Boulevard,California,San Diego County,San Diego,92173,32.5590344,-117.05888823786408
Calle Nicolás Bravo,Hidalgo,Pachuca de Soto,Pachuca,42010,20.1281602,-98.7316539
Calle Ignacio José de Allende,Hidalgo,Pachuca de Soto,Pachuca,42010,20.127686,-98.7321872
Calle Ignacio José de Allende,Hidalgo,Pachuca de Soto,Pachuca,42000,20.1266786,-98.7322459
Viaducto Nuevo Hidalgo,Hidalgo,Pachuca de Soto,Pachuca,42010,20.1262815,-98.7316559
Calle Ignacio José de Allende,Hidalgo,Pachuca de Soto,Pachuca,42000,20.1259753,-98.7329295
Calle Mariano Abasolo,Hidalgo,Pachuca de Soto,Pachuca,42000,20.1269566,-98.7357509
Boulevard Felipe Ángeles,Hidalgo,Pachuca de Soto,,42083,20.0609368,-98.78582233587389
Calle Manuel Fernando Soto,Hidalgo,Pachuca de Soto,Pachuca,42000,20.12509365,-98.73800165944684
Camino Real,Hidalgo,Pachuca de Soto,Pachuca,42058,20.1302914,-98.718869
Carretera México-Pachuca,Hidalgo,Pachuca de Soto,,42082,20.05334665,-98.78686682951597
Luis E. Erro,Puebla,San Andrés Cholula,,72840,19.0312078,-98.31650342357142
Luis E. Erro,Puebla,San Andrés Cholula,,72840,19.031459650000002,-98.31729101499201
Calle Annie Jump Cannon,Puebla,San Andrés Cholula,,72840,19.031321300000002,-98.31736115000001
Calle 19 Oriente,Puebla,San Andrés Cholula,,72750,19.0514126,-98.30586047099706
Calle Guadalupe Victoria,Puebla,San Andrés Cholula,,72840,19.02953975,-98.31929731754016
Avenida Reforma,Puebla,San Andrés Cholula,,72750,19.0532252,-98.30353633613854
Calle 8 Sur,Puebla,San Pedro Cholula,,72750,19.05339395,-98.30363341388411
Calle 2 Poniente,Puebla,San Andrés Cholula,,72810,19.05336525,-98.303179
Calle 8 Sur,Puebla,San Pedro Cholula,,72750,19.05353015,-98.30382086511976
Calle 2 Poniente,Puebla,San Andrés Cholula,,72810,19.05348995,-98.30359027012116
Calle Zimapán,Hidalgo,Tula de Allende,,42842,19.9926868,-99.3233421
Calle José Merced Pedraza,Hidalgo,Huichapan,,42400,20.3727945,-99.6478067
Carretera Libramiento de Huichapan,Hidalgo,Huichapan,,42400,20.382076,-99.6585364
Jacaranda,Hidalgo,Tula de Allende,,42800,20.0348347,-99.3406084
Camino Condesa,Hidalgo,Tula de Allende,,42831,20.0344758,-99.3418416
Carretera Tula-Tepeji,Hidalgo,Tula de Allende,,42850,19.9479502,-99.3391272
Vía Morelos,Estado de México,,Ecatepec de Morelos,55080,19.5836979,-99.0411039
Vía Morelos,Estado de México,,Ecatepec de Morelos,55090,19.5860017,-99.0409155
Carretera Vía José López Portillo,Estado de México,Tultitlán,Buenavista,54913,19.6200435,-99.1685163
Autopista México-Querétaro,Estado de México,Tultitlán,Buenavista,54753,19.608895500000003,-99.18888517761208
Carretera Vía José López Portillo,Estado de México,Tultitlán,,54948,19.6263884,-99.1448424
Circuito de las Américas,Estado de México,,Ecatepec de Morelos,55070,19.582875450000003,-99.02481735732677
Prolongación Galeana,Estado de México,Cuautitlán Izcalli,Cuautitlán Izcalli,54763,19.60824655,-99.19084057009532
Hacienda Sierra Vieja,Estado de México,Cuautitlán Izcalli,Cuautitlán Izcalli,54769,19.6038437,-99.19106442795194
Carretera Vía José López Portillo,Estado de México,,Ecatepec de Morelos,55016,19.6188534,-99.0670146
Avenida Paseo de las Haciendas,Estado de México,Cuautitlán Izcalli,Cuautitlán Izcalli,54730,19.6716325,-99.2057617
Calle 18,Yucatán,Izamal,,77540,20.92882185,-89.00727564203675
Calle 22,Yucatán,Izamal,,97540,20.9300153,-89.0126897
Avenida Zamná,Yucatán,Izamal,,97540,20.9275306,-89.0240603
Calle 33,Yucatán,Izamal,,97540,20.93152,-89.0174679
Calle 31,Yucatán,Izamal,,97540,20.9328114,-89.0164128
Calle 29,Yucatán,Izamal,,97540,20.9339095,-89.0146208
Calle 27,Yucatán,Izamal,,97540,20.9346752,-89.0119919
Calle 31 A,Yucatán,Izamal,,97540,20.9323487,-89.0195861
Calle 31 A,Yucatán,Izamal,,97540,20.9339323,-89.0176326
Calle 30,Yucatán,Izamal,,97540,20.9335267,-89.018764
Calle Paseo de las Bugambilias,Puebla,Atlixco,,74293,18.8896863,-98.43158066713556
Luis E. Erro,Puebla,San Andrés Cholula,,72840,19.0312078,-98.31650342357142
Calle Annie Jump Cannon,Puebla,San Andrés Cholula,,72840,19.031321300000002,-98.31736115000001
Luis E. Erro,Puebla,San Andrés Cholula,,72840,19.031459650000002,-98.31729101499201
Calle Guadalupe Victoria,Puebla,San Andrés Cholula,,72840,19.02953975,-98.31929731754016
Calle Orquídea,Puebla,Municipio de Puebla,Puebla,72228,19.0722194,-98.1451065
Calle 5 Sur,Puebla,Atlixco,,74260,18.9075941,-98.4369797
Avenida Nicolás Bravo Rueda,Puebla,Atlixco,,74260,18.9078109,-98.4318666
Calle 5 Sur,Puebla,Atlixco,,74260,18.9079569,-98.4368367
Avenida Independencia,Puebla,Atlixco,,74260,18.9083161,-98.4347638
Calle San Luis,Zacatecas,Jerez,,99300,22.6474639,-102.9834715
Calzada Porfirio Díaz,Zacatecas,Jerez,,99300,22.6437425,-102.9853494
Valentin Gomez Farias,Zacatecas,Jerez,,99300,22.6520771,-102.9889056
Calle del Hospicio,Zacatecas,Jerez,,99300,22.6498679,-102.9903902
Plaza Principal,Zacatecas,Jerez,,99300,22.6493991,-102.9907175
Calle Hidalgo,Zacatecas,Jerez,,99300,22.6485163,-102.9917635
Avenida Alameda Sur,Zacatecas,Jerez,,99300,22.6467818,-102.9964678
Avenida Universidad,Nuevo León,San Nicolás de los Garza,Monterrey,64650,25.7442927,-100.302161
Calle Primero de Enero,Nuevo León,San Nicolás de los Garza,San Nicolás de los Garza,66458,25.744405,-100.30260567478882
Avenida Universidad,Nuevo León,San Nicolás de los Garza,San Nicolás de los Garza,66450,25.74153145,-100.30159024494479
Avenida Universidad,Nuevo León,San Nicolás de los Garza,San Nicolás de los Garza,66450,25.7414816,-100.3017484
Avenida Universidad,Nuevo León,San Nicolás de los Garza,San Nicolás de los Garza,66450,25.74120715,-100.30149162609973
Avenida Universidad,Nuevo León,San Nicolás de los Garza,San Nicolás de los Garza,66450,25.7412162,-100.301835
18 de Diciembre,Nuevo León,San Nicolás de los Garza,Monterrey,66450,25.7416763,-100.302961
Avenida Diego Rivera,Nuevo León,San Pedro Garza García,,66269,25.649167,-100.33381652082106
Avenida Diego Rivera,Nuevo León,San Pedro Garza García,,66269,25.6492658,-100.333967
Avenida Diego Rivera,Nuevo León,San Pedro Garza García,,66260,25.6498464,-100.33405
Avenida Forjadores de Puebla,Puebla,San Pedro Cholula,,72770,19.0757565,-98.2925895
Calle 7 Norte,Puebla,San Pedro Cholula,,72860,19.0657595,-98.3106184
Calle 4 Poniente,Puebla,San Pedro Cholula,,72860,19.0660258,-98.3116754
Coclovía 9 Sur,Puebla,San Pedro Cholula,,72760,19.066207900000002,-98.31252693293177
Coclovía 9 Sur,Puebla,San Pedro Cholula,,72760,19.0661968,-98.3125029
Avenida 6 Poniente,Puebla,San Pedro Cholula,,72860,19.0643273,-98.3062877
Avenida 8 Oriente,Puebla,San Pedro Cholula,,72860,19.064214,-98.3048412143966
Avenida 5 de Mayo,Puebla,San Pedro Cholula,,72860,19.0640559,-98.3059949
Avenida 6 Oriente,Puebla,San Pedro Cholula,,72860,19.0638829,-98.30500079536358
Ciclovía Avenida 6 Poniente,Puebla,San Pedro Cholula,,72860,19.063836,-98.3049243
Boulevard Luis Donaldo Colosio,Hidalgo,Pachuca de Soto,Pachuca,42084,20.1104173,-98.7748012
Avenida Camino Real de la Plata,Hidalgo,Pachuca de Soto,Pachuca,42084,20.0971911,-98.7737927
Carretera México-Pachuca,Hidalgo,Pachuca de Soto,,42082,20.05334665,-98.78686682951597
Boulevard Felipe Ángeles,Hidalgo,Pachuca de Soto,Pachuca,42080,20.1107196,-98.7514456
Avenida Los Pirules,Hidalgo,Pachuca de Soto,Pachuca,42083,20.0952819,-98.7706153
Carretera México-Pachuca,Hidalgo,Zapotlán de Juárez,,42190,20.0212164,-98.8149987
Avenida Benito Juárez,Hidalgo,Pachuca de Soto,Pachuca,42064,20.114063,-98.7486195
Boulevard Everardo Márquez,Hidalgo,Pachuca de Soto,Pachuca,42080,20.1140561,-98.7474455
Boulevard Río de las Avenidas,Hidalgo,Pachuca de Soto,Pachuca,42084,20.1109462,-98.7464529
Boulevard Javier Rojo Gómez,Hidalgo,Pachuca de Soto,Pachuca,42094,20.1059012,-98.7476009
Calle Manuel Acuña,Coahuila,Saltillo,Saltillo,27105,25.4239814,-101.0030491
Calle Juan Aldama,Coahuila,Saltillo,Saltillo,25000,25.424009,-101.0024035
Calle Padre Flores,Coahuila,Saltillo,Saltillo,25000,25.4233346,-101.0017135
Callejón Caracol,Coahuila,Saltillo,Saltillo,27105,25.4184234,-100.9993002
Privada Colima,Coahuila,Saltillo,Saltillo,25265,25.43633955,-100.9937638994594
Calle 17,Coahuila,Saltillo,Saltillo,25070,25.3955529,-101.0072359
Calle Nava,Coahuila,Saltillo,Saltillo,25280,25.444825299999998,-100.98528311724178
Boulevard Venustiano Carranza,Coahuila,Saltillo,Saltillo,25017,25.450606,-100.98854266523752
Calle Antiguo Camino a Monterrey,Coahuila,Saltillo,Saltillo,25284,25.440508649999998,-100.97704180592027
Calle Antiguo Camino a Monterrey,Coahuila,Saltillo,Saltillo,25284,25.44069475,-100.97687880875657
Hacienda San Andrés,Puebla,San Andrés Cholula,,72176,19.0433051,-98.2586652
Acceso,Puebla,San Andrés Cholula,,08610,19.0173109,-98.2679318
Boulevard del Niño Poblano,Puebla,Municipio de Puebla,Puebla,72176,19.0374286,-98.2451385
Calle Recta a Cholula,Puebla,San Andrés Cholula,,72735,19.0581514,-98.28039217361356
Avenida 14 Oriente,Puebla,San Andrés Cholula,,72810,19.0545847,-98.29164538708288
Calle 2 Poniente,Puebla,San Andrés Cholula,,72810,19.05220735,-98.2995861111126
V. Carranza,Puebla,San Andrés Cholula,,72450,19.0206891,-98.2476075
Boulevard Atlixco,Puebla,Municipio de Puebla,Puebla,72160,19.0522508,-98.2253023
Avenida Hermanos Serdán,Puebla,Municipio de Puebla,Puebla,72140,19.0605185,-98.2208057
Avenida Hermanos Serdán,Puebla,Municipio de Puebla,Puebla,72140,19.0597744,-98.2200356
Calle Peso Mexicano,Puebla,Municipio de Puebla,Puebla,72140,19.0632622,-98.2211835
Calle Tlaxco,Puebla,Municipio de Puebla,Puebla,72160,19.0527268,-98.2213555
Avenida 3 Poniente,Puebla,Municipio de Puebla,Puebla,72090,19.0530147,-98.2184047
Calle Fresnos,Puebla,Municipio de Puebla,Puebla,72180,19.0430964,-98.2363431
Privada Circuito Santa Anita Sur,Puebla,Municipio de Puebla,Puebla,72180,19.044051,-98.2386876
Avenida Reforma,Puebla,Municipio de Puebla,Puebla,72000,19.052932499999997,-98.21422644844102
Avenida 15 de Mayo,Puebla,Municipio de Puebla,Puebla,72060,19.074825750000002,-98.22317277543223
Avenida Miguel Hidalgo,Puebla,San Pedro Cholula,,72860,19.0625434,-98.3073612
Avenida Miguel Hidalgo,Puebla,San Pedro Cholula,,72760,19.0625222,-98.3078978
Avenida Miguel Alemán Valdés,Puebla,San Pedro Cholula,,72750,19.0615171,-98.3070878
Calle 3 Norte,Puebla,San Pedro Cholula,,72860,19.0637896,-98.30783
Calle 4 Poniente,Puebla,San Pedro Cholula,,72860,19.0635547,-98.3068435
Calle 4 Poniente,Puebla,San Pedro Cholula,,72860,19.0632766,-98.3069738
Avenida 6 Poniente,Puebla,San Pedro Cholula,,72860,19.0643273,-98.3062877
Avenida 5 de Mayo,Puebla,San Pedro Cholula,,72860,19.0640559,-98.3059949
Calle 7 Norte,Puebla,San Pedro Cholula,,72860,19.0657595,-98.3106184
Calle 2 Sur,Puebla,San Pedro Cholula,,72860,19.059919999999998,-98.30588504984347
J Pilar Treviño,Nuevo León,Guadalupe,Guadalupe,67116,25.6940694,-100.1835633
J Pilar Treviño,Nuevo León,Guadalupe,Guadalupe,67116,25.69418725,-100.1836130757934
Avenida Las Torres,Nuevo León,San Nicolás de los Garza,San Nicolás de los Garza,66422,25.7595917,-100.30403768278454
Avenida Universidad,Nuevo León,San Nicolás de los Garza,Monterrey,64650,25.7442927,-100.302161
Calle Primero de Enero,Nuevo León,San Nicolás de los Garza,San Nicolás de los Garza,66458,25.744405,-100.30260567478882
Avenida Universidad,Nuevo León,San Nicolás de los Garza,San Nicolás de los Garza,66450,25.74153145,-100.30159024494479
Avenida Universidad,Nuevo León,San Nicolás de los Garza,San Nicolás de los Garza,66450,25.7414816,-100.3017484
Avenida Universidad,Nuevo León,San Nicolás de los Garza,San Nicolás de los Garza,66450,25.74120715,-100.30149162609973
Avenida Universidad,Nuevo León,San Nicolás de los Garza,San Nicolás de los Garza,66450,25.7412162,-100.301835
18 de Diciembre,Nuevo León,San Nicolás de los Garza,Monterrey,66450,25.7416763,-100.302961
Carretera Reynosa-Río Bravo (Calle Porfirio Díaz),Tamaulipas,Reynosa,Reynosa,88500,26.03640325,-98.2771086418193
Calle José de Escandón y Helguera,Tamaulipas,Reynosa,Reynosa,88500,26.0789617,-98.3003617
Calle Cristóbal Colón,Tamaulipas,Reynosa,Reynosa,88500,26.086858,-98.272142653093
J Pilar Treviño,Nuevo León,Guadalupe,Guadalupe,67116,25.6940694,-100.1835633
J Pilar Treviño,Nuevo León,Guadalupe,Guadalupe,67116,25.69418725,-100.1836130757934
Boulevard Ángel Albino Corzo,Chiapas,Tuxtla Gutiérrez,Tuxtla Gutiérrez,29077,16.7460205,-93.0752132
Boulevard Libramiento Norte,Chiapas,Tuxtla Gutiérrez,Tuxtla Gutiérrez,29077,16.7501398,-93.0753588
Calzada al Sumidero,Chiapas,Tuxtla Gutiérrez,Tuxtla Gutiérrez,29010,16.7749326,-93.1017533
Circuito de las Flores Oriente,Chiapas,Tuxtla Gutiérrez,Tuxtla Gutiérrez,29057,16.7594906,-93.174319
Boulevard Presa Chicoasén,Chiapas,Tuxtla Gutiérrez,Tuxtla Gutiérrez,29044,16.7566264,-93.088697
Boulevard Ángel Albino Corzo,Chiapas,Tuxtla Gutiérrez,Tuxtla Gutiérrez,29000,16.7492707,-93.0910161
Privada Doctor Rodolfo Figueroa,Chiapas,Tuxtla Gutiérrez,Tuxtla Gutiérrez,29077,16.7497864,-93.0921801
Calle Libramiento Sur Oriente,Chiapas,Tuxtla Gutiérrez,Tuxtla Gutiérrez,29077,16.7351177,-93.0903382
5a Avenida Norte Poniente,Chiapas,Tuxtla Gutiérrez,Tuxtla Gutiérrez,29020,16.7566364,-93.1649129
Calzada del Trabajo,Chiapas,Tuxtla Gutiérrez,Tuxtla Gutiérrez,29077,16.7324907,-93.0946601
Calle 7 Poniente,Puebla,Tehuacán,Tehuacán,75700,18.45660755,-97.40496702506223
Avenida Reforma Sur,Puebla,Tehuacán,Tehuacán,75700,18.4611881,-97.3942276
Avenida Independencia Poniente,Puebla,Tehuacán,Tehuacán,75700,18.4632291,-97.39453235863402
Calzada Adolfo López Mateos,Puebla,Tehuacán,Tehuacán,75700,18.4638883,-97.4075307
Calle 1 Sur,Puebla,Tehuacán,Tehuacán,75700,18.4626934,-97.39337372957746
Calle 1 Norte,Puebla,Tehuacán,Tehuacán,75740,18.4630706,-97.3930391
Calle Ignacio Ramírez El Nigromante,Puebla,Zacatlán,,73310,19.9345382,-97.9580911
Calle Independencia,Puebla,Zacatlán,,73310,19.9330868,-97.9543827
Calle Benito Juárez García,Puebla,Zacatlán,,73310,19.9346397,-97.9604713
Calle Leandro Valle,Puebla,Zacatlán,,73310,19.9330341,-97.9569266
Calle Ignacio Ramírez El Nigromante,Puebla,Zacatlán,,73310,19.9345382,-97.9580911
Calle Independencia,Puebla,Zacatlán,,73310,19.9330868,-97.9543827
Calle Benito Juárez García,Puebla,Zacatlán,,73310,19.9346397,-97.9604713
Calle Benito Juárez García,Puebla,Zacatlán,,73310,19.9344829,-97.9604847
Calle Leandro Valle,Puebla,Zacatlán,,73310,19.9330341,-97.9569266
Calle Leandro Valle,Puebla,Zacatlán,,73310,19.9331444,-97.9576375
Calle Leandro Valle,Puebla,Zacatlán,,73310,19.933033,-97.9572321
Calle Benito Juárez García,Puebla,Zacatlán,,73310,19.9339256,-97.9606008
Calle Benito Juárez García,Puebla,Zacatlán,,73310,19.9335576,-97.9606246
Avenida Licenciado Luis Cabrera L,Puebla,Zacatlán,,73310,19.9337705,-97.96144
Luis E. Erro,Puebla,San Andrés Cholula,,72840,19.0312078,-98.31650342357142
Luis E. Erro,Puebla,San Andrés Cholula,,72840,19.031459650000002,-98.31729101499201
Calle Annie Jump Cannon,Puebla,San Andrés Cholula,,72840,19.031321300000002,-98.31736115000001
Calle Guadalupe Victoria,Puebla,San Andrés Cholula,,72840,19.02953975,-98.31929731754016
Calle 7 Norte,Puebla,San Pedro Cholula,,72860,19.0657595,-98.3106184
Calle 4 Poniente,Puebla,San Pedro Cholula,,72860,19.0660258,-98.3116754
Coclovía 9 Sur,Puebla,San Pedro Cholula,,72760,19.066207900000002,-98.31252693293177
Coclovía 9 Sur,Puebla,San Pedro Cholula,,72760,19.0661968,-98.3125029
Avenida Forjadores de Puebla,Puebla,San Pedro Cholula,,72770,19.0757565,-98.2925895
Avenida 6 Poniente,Puebla,San Pedro Cholula,,72860,19.0643273,-98.3062877
Carretera Entronque Jorobas - Tula,Hidalgo,Atotonilco de Tula,,42988,19.9983719,-99.24745005869741
Carretera Entronque Jorobas - Tula,Hidalgo,Atitalaquia,,42970,20.043148350000003,-99.26104727316908
Carretera Entronque Jorobas - Tula,Hidalgo,Tula de Allende,,42820,20.059392,-99.2694246
Avenida B Juárez,Hidalgo,Tlaxcoapan,,42960,20.0888609,-99.2401779
Prolongación Agustín Melgar,Hidalgo,Atotonilco de Tula,,42900,20.01651045,-99.23892895617321
Carretera Entronque Jorobas - Tula,Hidalgo,Tula de Allende,,42820,20.0618333,-99.2729515
Carretera Entronque Jorobas - Tula,Hidalgo,Tula de Allende,,42820,20.0628073,-99.2727532
Calle República de Cuba,Hidalgo,Atotonilco de Tula,,42900,20.006291849999997,-99.22020799148984
Calle Juan C Doria,Hidalgo,Tlaxcoapan,,42950,20.090355,-99.22249457744724
Calle San Antonio,Hidalgo,Atotonilco de Tula,,42980,20.002603450000002,-99.20266763119324
Avenida Jalisco,Oaxaca,Oaxaca de Juárez,Oaxaca,68020,17.0943653,-96.71221105615365
Avenida Jalisco,Oaxaca,Oaxaca de Juárez,Oaxaca,68020,17.0951746,-96.712374
Prolongación de Iturbide,Oaxaca,Oaxaca de Juárez,Oaxaca,68020,17.1034197,-96.7092791
Primera Privada de Jacarandas,Oaxaca,Oaxaca de Juárez,Oaxaca,68020,17.0944745,-96.713086
Avenida de las Etnias,Oaxaca,Oaxaca de Juárez,Oaxaca,68020,17.0922214,-96.7132628
Calle Catalina,Oaxaca,Oaxaca de Juárez,Oaxaca,68020,17.097752,-96.7132696
Calle Hidalgo,Oaxaca,Oaxaca de Juárez,Oaxaca,68020,17.0981121,-96.7134882
Calle Hidalgo,Oaxaca,Oaxaca de Juárez,Oaxaca,68020,17.1044392,-96.711098
Calle Iturbide,Oaxaca,Oaxaca de Juárez,Oaxaca,68020,17.1034391,-96.7120449
Calle Morelos,Oaxaca,Oaxaca de Juárez,Oaxaca,68020,17.1036788,-96.7124185
Calle 69,Yucatán,Mérida,Mérida,97000,20.9631582,-89.6299616
Calle 69,Yucatán,Mérida,Mérida,97000,20.9632029,-89.6306876
Calle 64,Yucatán,Mérida,Mérida,97000,20.9633015,-89.6268207
Calle 64,Yucatán,Mérida,Mérida,97000,20.96332015,-89.62700619298246
Calle 70,Yucatán,Mérida,Mérida,97000,20.9642296,-89.6305925
Calle 64,Yucatán,Mérida,Mérida,97000,20.9618573,-89.6269012
Calle 67,Yucatán,Mérida,Mérida,97000,20.9640174,-89.6293416
Calle 71,Yucatán,Mérida,Mérida,97000,20.9618249,-89.6315811
Calle 69,Yucatán,Mérida,Mérida,97000,20.9631594,-89.632028
Calle 62,Yucatán,Mérida,Mérida,97000,20.9614929,-89.625457
Calle 38 A,Yucatán,Valladolid,Valladolid,97780,20.6773215,-88.1992641
Calle 49 A,Yucatán,Valladolid,Valladolid,97780,20.6838168,-88.2009305
Calle 38,Yucatán,Valladolid,Valladolid,97780,20.6827235,-88.1988964
Calle 40,Yucatán,Valladolid,Valladolid,97780,20.6846676,-88.2004933
Calle 36,Yucatán,Valladolid,Valladolid,97780,20.6838802,-88.1975502
Calle 47,Yucatán,Valladolid,Valladolid,97783,20.6859684,-88.1999268
Calle 46,Yucatán,Valladolid,Valladolid,97780,20.6864175,-88.2046726
Calle 45,Yucatán,Valladolid,Valladolid,97780,20.6872924,-88.2010177
Calle 45,Yucatán,Valladolid,Valladolid,97780,20.6873505,-88.2005809
Calle 42,Yucatán,Valladolid,Valladolid,97780,20.6877399,-88.20204
Privada Teziutlán,Puebla,Municipio de Puebla,Puebla,72940,18.9490009,-98.2454836
V. Carranza,Puebla,San Andrés Cholula,,72450,19.0206891,-98.2476075
Boulevard del Niño Poblano,Puebla,Municipio de Puebla,Puebla,72176,19.0374286,-98.2451385
Boulevard Vía Atlixcáyotl,Puebla,San Andrés Cholula,,72190,19.0274443,-98.236116
Boulevard Vía Atlixcáyotl,Puebla,San Andrés Cholula,,72820,19.0153152,-98.25263516824714
Calle 7 Norte,Puebla,San Pedro Cholula,,72860,19.0657595,-98.3106184
Calle 4 Poniente,Puebla,San Pedro Cholula,,72860,19.0660258,-98.3116754
Coclovía 9 Sur,Puebla,San Pedro Cholula,,72760,19.0661968,-98.3125029
Coclovía 9 Sur,Puebla,San Pedro Cholula,,72760,19.066207900000002,-98.31252693293177
Avenida Forjadores de Puebla,Puebla,San Pedro Cholula,,72770,19.0757565,-98.2925895
Avenida 6 Poniente,Puebla,San Pedro Cholula,,72860,19.0643273,-98.3062877
Avenida A,Baja California,Municipio de San Quintín,,22932,30.5573595,-115.9400802
Avenida A,Baja California,Municipio de San Quintín,,22932,30.5570353,-115.9402525
Calle Octava,Baja California,Municipio de San Quintín,,22932,30.55921015,-115.93307149599198
Carretera Transpeninsular,Baja California,Municipio de San Quintín,,22932,30.5639749,-115.9434
Carretera Transpeninsular,Baja California,Municipio de San Quintín,,22945,30.5762914,-115.9462558
Carretera Transpeninsular,Baja California,Municipio de San Quintín,,22932,30.5348372,-115.9343138
Boulevard Cuauhtémoc Sur,Baja California,Municipio de Tijuana,Tijuana,22044,32.51445605,-117.0217036588914
Boulevard Cuauhtémoc Sur Oriente,Baja California,Municipio de Tijuana,Tijuana,22044,32.5162687,-117.0212908587272
Avenida Cuauhtémoc Sur Poniente,Baja California,Municipio de Tijuana,Tijuana,22044,32.518863100000004,-117.02243079407718
Boulevard Cuauhtémoc Sur Oriente,Baja California,Municipio de Tijuana,Tijuana,22044,32.518842899999996,-117.02210700488234
Avenida Benito Juárez,Puebla,Teziutlán,,73890,19.8086753,-97.3693634
Avenida Miguel Hidalgo,Puebla,Teziutlán,,73800,19.8161988,-97.3604615
Avenida Zaragoza,Puebla,Teziutlán,,73800,19.8171733,-97.3585199
Circuito Juan Pablo ll,Puebla,Teziutlán,,73967,19.824129,-97.36071094603237
Vialidad Toluca-Metepec,Estado de México,Metepec,,52140,19.24403125,-99.60484583326857
Vialidad Toluca-Metepec,Estado de México,Metepec,,52140,19.2439663,-99.6048826
Vialidad Toluca-Metepec,Estado de México,Metepec,,52140,19.2511713,-99.615538
Boulevard Toluca-Metepec,Estado de México,Metepec,,52140,19.25113615,-99.61553344604121
Boulevard Toluca-Metepec,Estado de México,Metepec,,52166,19.2540049,-99.6197616
Prolongación Los Arcos,Estado de México,,Ojo de Agua,55770,19.666514,-99.0154657
Avenida Vicente Villada,Estado de México,Nezahualcóyotl,Nezahualcóyotl,57000,19.4081646,-99.003283
Avenida Sor Juana Inés de la Cruz,Estado de México,Nezahualcóyotl,Nezahualcóyotl,57000,19.4136978,-99.0107314
Avenida Chimalhuacán,Estado de México,Nezahualcóyotl,Nezahualcóyotl,57000,19.397362899999997,-98.99800322636457
Avenida Adolfo López Mateos,Estado de México,Nezahualcóyotl,Nezahualcóyotl,57300,19.4180025,-99.0180402
Vía Morelos,Estado de México,,Ecatepec de Morelos,55080,19.5836979,-99.0411039
Vía Morelos,Estado de México,,Ecatepec de Morelos,55090,19.5860017,-99.0409155
Circuito de las Américas,Estado de México,,Ecatepec de Morelos,55070,19.582875450000003,-99.02481735732677
Carretera Vía José López Portillo,Estado de México,,Ecatepec de Morelos,55016,19.6188534,-99.0670146
Privada Chautepec,Estado de México,,Ecatepec de Morelos,55107,19.5568902,-99.0187038
Calle Sur 4,Estado de México,,Ecatepec de Morelos,55130,19.5329322,-99.0468087
Avenida Adolfo López Mateos,Estado de México,,Ecatepec de Morelos,55490,19.53301525,-99.04673899310743
Vía Morelos,Estado de México,,Ecatepec de Morelos,55310,19.5293409,-99.0788878
Calle Chichimecas,Estado de México,,Ecatepec de Morelos,55120,19.536426300000002,-99.02739678192648
Calle Pedro Trujillo,Hidalgo,Zimapán,,,20.73691285,-99.38286631096886
Avenida Heróico Colegio Militar,Hidalgo,Zimapán,,,20.73451725,-99.38275935849813
Carretera Pachuca - Cd. Sahagún,Hidalgo,Tepeapulco,,43990,19.78287255,-98.57813606085514
Avenida Fernando de Alva Ixtlilxóchitl,Hidalgo,Tepeapulco,,43990,19.77141525,-98.58259047042591
Calle Libramiento,Hidalgo,Zimapán,,,20.73436805,-99.37437715653266
Calle Francisco I. Madero,Hidalgo,Ajacuba,,,20.0925906,-99.123785055219
Calle Eustolio Becerra,Hidalgo,Ajacuba,,,20.0927758,-99.12183285341786
Calle Venustiano Carranza,Hidalgo,Ajacuba,,,20.08882095,-99.12317434038545
Calle Zaragoza,Hidalgo,Zempoala,,43830,19.9127075,-98.666153
Carretera México-Pachuca,Hidalgo,Zapotlán de Juárez,,42190,20.0212164,-98.8149987
Carretera México-Pachuca,Hidalgo,Zapotlán de Juárez,,42190,20.011015450000002,-98.82128204303316
Carretera México-Pachuca,Hidalgo,Pachuca de Soto,,42082,20.05334665,-98.78686682951597
Boulevard Felipe Ángeles,Hidalgo,Pachuca de Soto,,42083,20.0609368,-98.78582233587389
Línea Divisoria,Hidalgo,Zapotlán de Juárez,,42190,19.9791171,-98.8498286
Central Oriente,Veracruz,Poza Rica de Hidalgo,Poza Rica,93270,20.5171715,-97.4421544
Ferrocarril,Veracruz,Poza Rica de Hidalgo,Poza Rica,93370,20.515703,-97.450726
Astoria,Veracruz,Poza Rica de Hidalgo,Poza Rica,93270,20.51553545,-97.43670035
Ciclovía Adolfo Ruiz Cortines,Veracruz,Xalapa,Xalapa,91010,19.558242,-96.9311428
Ciclovía Adolfo Ruiz Cortines,Veracruz,Xalapa,Xalapa,91010,19.5501377,-96.93545
Ciclovía Adolfo Ruiz Cortines,Veracruz,Xalapa,Xalapa,91120,19.5486992,-96.9358873
Division del norte,Veracruz,Xalapa,Xalapa,91230,19.5527233,-96.9571835
Avenida Xalapa,Veracruz,Xalapa,Xalapa,91130,19.5544951,-96.9287105
16 Norte,Veracruz,Poza Rica de Hidalgo,Poza Rica,93260,20.5256025,-97.4584939
Heriberto Kehoe Vincent,Veracruz,Poza Rica de Hidalgo,Poza Rica,93330,20.5285451,-97.462197
Central Oriente,Veracruz,Poza Rica de Hidalgo,Poza Rica,93270,20.5171715,-97.4421544
Astoria,Veracruz,Poza Rica de Hidalgo,Poza Rica,93270,20.51553545,-97.43670035
Ferrocarril,Veracruz,Poza Rica de Hidalgo,Poza Rica,93370,20.515703,-97.450726
16 Norte,Veracruz,Poza Rica de Hidalgo,Poza Rica,93260,20.5256025,-97.4584939
Simón Bolívar,Veracruz,Poza Rica de Hidalgo,Poza Rica,93340,20.5275827,-97.4668852
Heriberto Kehoe Vincent,Veracruz,Poza Rica de Hidalgo,Poza Rica,93330,20.5285451,-97.462197
Adolfo Ruiz Cortines,Veracruz,Poza Rica de Hidalgo,Poza Rica,93330,20.5286207,-97.46218532430795
18 de Marzo,Veracruz,Poza Rica de Hidalgo,Poza Rica,93330,20.5303361,-97.4637289
Vereda Tropical,Veracruz,Papantla,,93400,20.4503809,-97.328468
5 de Mayo,Veracruz,Papantla,,93400,20.447314,-97.3243457
